자치구명,시설구분,주소,위도,경도
관악구,에이치플러스양지병원 옥상,서울특별시 관악구 남부순환로 1636,37.484369,126.932566
관악구,롯데백화점 관악점 건물뒷편,서울특별시 관악구 봉천로 209,37.490495,126.924982
관악구,관악구청 2층 테라스,서울특별시 관악구 관악로 145,37.478211,126.951501
관악구,관악구청 9층 옥상,서울특별시 관악구 관악로 145,37.478211,126.951501
관악구,관악구의회 6층 옥상,서울특별시 관악구 관악로 145,37.478211,126.951501
관악구,관악구 보건소 6층 옥상,서울특별시 관악구 관악로 145,37.478211,126.951501
관악구,싱글벙글센터 뒷편,서울특별시 관악구 남부순환로234길 73,37.476096,126.956288
관악구,관악문화관도서관,서울특별시 관악구 관악구 신림로3길 35,37.467553,126.944962
관악구,강남고려병원 주차장,서울특별시 관악구 관악로 242,37.485619,126.956782
관악구,타임스트림 옥상,서울특별시 관악구 신림로 330 ,37.483851,126.930235
관악구,krtc 옥상,서울특별시 관악구 승방4길 14,37.474338,126.980798
관악구,르네상스쇼핑몰,서울특별시 관악구 신림로 340,37.484763,126.930097
마포구,나인브릭,서울특별시 마포구 홍익로5길 32 나인브릭 호텔,37.553782,126.920571
마포구,로이넷 호텔 서울 마포,서울특별시 마포구 마포대로 67,37.541829,126.948306
마포구,신라스테이 마포,서울특별시 마포구 마포대로 83,37.542854,126.949718
마포구,㈜호텔롯데 롯데시티 ,서울특별시 마포구 마포대로 109,37.545069,126.950848
마포구,마포농수산물시장,서울 마포구 월드컵로 235,37.565199,126.898483
마포구,태화 샘솟는집,서울 마포구 마포대로 173-20 태화샘솟는집,37.549902,126.954456
마포구,서부운전면허시험장,서울 마포구 월드컵로42길 13,37.578758,126.880806
마포구,제노피시방(동교점),서울 마포구 동교로27길 12 지하1층,37.558876,126.922876
마포구,호텔 나루,서울특별시 마포구 마포대로 8 호텔 나루 서울 엠갤러리,37.537307,126.944273
마포구,쓰리팝 PC CAFE,서울특별시 마포구 양화로3길 6 지하1층 쓰리팝PC방,37.549225,126.911872
마포구,긱스타 PC카페,서울특별시 마포구 월드컵로1길 14 딜라이트 스퀘어 1차 로비층 102~104호,37.550050,126.912061
마포구,이마트 공덕점,서울 마포구 백범로 212 대우 월드마크마포,37.542432,126.953366
마포구,서강PC,서울 마포구 광성로6길 32,37.548467,126.938897
마포구,넥스트 PC 서강대점,서울 마포구 서강로16길 69 지하1층,37.551417,126.937187
마포구,아이센스리그PC신촌본점,서울 마포구 노고산동 신촌로 88,37.555310,126.935332
마포구,3POP PC방,서울특별시 마포구 월드컵로14길 5 지하1층 3POP PC방,37.556005,126.910702
마포구,SNS PC,서울 마포구 양화로 156 2층,37.556113,126.923447
마포구,쓰리팝 PC CAFE,서울특별시 마포구 양화로3길 6 지하1층 쓰리팝PC방,37.549225,126.911872
마포구,라인업PC방,서울 마포구 어울마당로 26,37.547500,126.919932
마포구,긱스타 PC방,서울특별시 마포구 매봉산로2길 15,37.578527,126.894978
마포구,마포구청,서울특별시 마포구 월드컵로 212 마포구청,37.566313,126.901616
마포구,3POP PC 킹콩점,서울특별시 마포구 망원로 97 2층 (망원동),37.558106,126.907522
마포구,텐PC CAFE,서울 마포구 월드컵북로56길 9,37.581385,126.887440
마포구,로드피씨,서울 용산구 청파로20길 34 선인상가,37.532616,126.966121
마포구,3POP PC,서울특별시 마포구 월드컵로14길 5 지하1층 3POP PC방,37.556005,126.910702
마포구,라운지 플스방,서울 마포구 잔다리로 12 홍석빌딩 5층 라운지플스방,37.550937,126.921848
마포구,스탠포드호텔,서울특별시 마포구 월드컵북로58길 15,37.582358,126.886699
송파구,롯데월드몰,서울특별시 송파구 올림픽로 300,37.513713,127.104302
송파구,문정 현대지식산업센터,서울특별시 송파구 법원로11길 7,37.485299,127.119391
송파구,가든파이브,서울특별시 송파구 충민로66,37.477615,127.124962
송파구,문정 SK V1 GL 메트로시티,서울특별시 송파구 법원로 128,37.486831,127.120454
강북구,한국전력,서울시 강북구 도봉로 242,37.630585,127.024886
강북구,강북구의회,서울시 강북구 삼각산로 089,37.640672,127.014114
강북구,강북경찰서,서울시 강북구 오패산로 406,37.6371702113794?,127.027042
강북구,서울북부도로사업소,서울시 강북구 한천로 913,37.6337500655502?,127.036730
강북구,강북문화정보도서관,서울시 강북구 오현로 145,37.625115,127.036080
강북구,강북전자공단,서울시 강북구 덕릉로40길 74,37.634162368067?,127.033671
강북구,SK텔레콤,서울시 강북구 도봉로 238,37.6297124410256?,127.025194
강북구,삼미통산,서울시 강북구 솔샘로 223,37.6202802179461?,127.017574
강북구,롯데백화점,서울시 강북구 도봉로 62,37.6145929759749?,127.030518
강북구,미즐 카페 엠,서울시 강북구 한천로 1289,37.6387503?,127.028965
강서구,강서구청 주차장 뒤편,화곡로 302 강서구청 주차장 뒤편,37.5509655144007?,126.849532
강서구,공연장,우장산로 66 강서구민회관 1층,37.5534364240863?,126.843649
강서구,보타닉 파크타워 옥상,공항대로 213 보타닉 파크타워 옥상,37.5596993751147?,126.831366
강서구,FITI시험연구원 서울본원 옥상,마곡중앙8로 3길 79 옥상,37.5678875977541?,126.838436
강서구,라파스 본사 옥상,마곡중앙8로 1길 62 옥상,37.566375,126.837021
강서구,메인택연구소 옥상,마곡중앙8로 3길 53 옥상,37.5657808896943?,126.837124
강서구,마곡대명투웨니 퍼스트오피스텔 옥상,강서로 443 마곡대명투웨니퍼스트 옥상,37.565162213225?,126.839917
강서구,마곡시티 오피스텔 1층 후문,마곡서로 170 1층  후문,37.569304,126.825593
강서구,마곡헤리움 2차 1층 후문,마곡중앙5로 1길 25 1층 후문,37.5692420716795?,126.826138
강서구,웰스바이오 1층,마곡중앙 8로 1길 16 1층 2곳,37.5625313259629?,126.836252
강서구,롯데중앙 연구소 주차장 옆,강서구 마곡중앙로 201 주차장 옆,37.571407693908?,126.827731
강서구,디엔오 강서사옥 옥상,마곡중앙로 150 옥상,37.5669944211027?,126.828521
강서구,마곡레포츠센터 1층 주차장 뒤편,양천로 251 마곡실내배드민턴장 1층 추자창 뒤편,37.5731554994777?,126.832149
강서구,골프존파크,하늘길 233 골프연습장,37.553505432825?,126.813427
강서구,지투프라자 3층,마곡중앙6로 65 지투프라자 3층,37.5604252748897?,126.834719
강서구,신사펍,마곡중앙6로 69 3층,37.5603375842313?,126.835089
강서구,김포공항화물청사 1층,"하늘길 111, 김포공항화물청사 1층 옥외의 일부",37.5605245028427?,126.804596
강서구,김포공항국제선,"하늘길 38, 김포공항국제선 옥외의 일부",37.5713695798026?,126.802960
강서구,김포공항국제선,"하늘길 111, 김포공항국내선 옥외의 일부",37.5605245028427?,126.804596
광진구,광진 경찰서,광진구 자양로 167,37.5429114164928?,127.083902
광진구,광진소방서 본관 1층 전면,광진구 광나루로 480,37.5448260218652?,127.082779
광진구,광진소방서 본관 1층 전면,광진구 광나루로 481,37.5443273?,127.086348
광진구,엘디코리아 우측,광진구 자양로 76,37.5356010287361?,127.087307
광진구,엘디코리아 우측,광진구 자양로 77,37.5346281?,127.083695
광진구,엘디코리아 우측,광진구 자양로 78,37.5338739?,127.066172
광진구,엘디코리아 좌측,광진구 자양로 79,37.5337203?,127.065382
광진구,엘디코리아 좌측,광진구 자양로 80,37.5350103589243?,127.084547
광진구,덕산빌딩,광진구 자양로 81,37.5351324957877?,127.083843
광진구,덕산빌딩,광진구 자양로 82,37.5333071?,127.064700
광진구,광진 우체국,광진구 구의동 587,37.5372634939351?,127.090146
광진구,광진구청 전기차충전소,광진구 자양1동777,37.5383979954125?,127.082429
광진구,광진구청 전기차충전소,광진구 자양1동778,37.531692?,127.074516
광진구,타워모스트광진아크로텔오피스텔,광진구 자양1동779,37.5375239543766?,127.082272
광진구,정보화교육센터,광진구 화양동 132-68,37.5462710059779?,127.070480
광진구,아리수본부 (서울물연구원),광진구 천호대로 716-10,37.5466126740221?,127.092066
광진구,아리수본부 (서울물연구원),광진구 천호대로 716-11,37.5478556?,127.093076
광진구,화양지구대 화장실 근처,능동로17길39,37.5465267774587?,127.071268
광진구,광나루지구대,아차산로 567,37.5444546646191?,127.103317
광진구,능동119 안전센터,능동로242,37.5516748979298?,127.077014
광진구,광진소방서 본관 1층 전면,광나루로480,37.5448260218652?,127.082779
광진구,광진소방서 본관 1층 전면,광나루로481,37.5443273?,127.086348
광진구,푸른초장교회 건너편,광진구 강변북로 26,37.5321487?,127.080735
광진구,리치하우스,천호대로 731,37.5398708?,127.145264
광진구,국립정신건강센터,서울 광진구 용마산로 127,37.5650862337223?,127.085777
광진구,세종대 홍진구조실험센터,능동로 209,37.5516093089619?,127.073184
광진구,어린이대공원역,능동로 211,37.550113?,127.077106
광진구,서울어린이대공원 서문,능동로 216,37.5520117940291?,127.078770
광진구,생생한방병원,"서울특별시 광진구 동일로 82-1, 생생한방병원 지하1~5층 (자양동)",37.5399452105408?,127.063098
광진구,서울 프라임병원,"서울특별시 광진구 동일로 92-1, B1~2, 3~7층 (자양동)",37.5408266646495?,127.063590
광진구,국립정신건강센터,서울특별시 광진구 용마산로 127,37.5650862337223?,127.085777
광진구,세종대 홍진구조실험센터,능동로 209,37.5516093089619?,127.073184
광진구,리틀엔젤스예술단 주차장,천호대로 664,37.5509798002896?,127.087095
광진구,건국대학교 공연장,능동로 120,37.539182674872?,127.074712
광진구,세종대학교 홍진구조 실험센터,아차산로 272(자양동)(지하 1층),37.5385582736952?,127.072996
광진구,롯데백화점 건대스타시티점,능동로 92(자양동)(지하6~지상10),37.5390373908314?,127.071432
광진구,커먼그라운드,아차산로 200  (자양동)(지하1~지상4),37.5410566332301?,127.065669
광진구,강변 테크노마트,광나루로56길  85(구의동)(지하1~지상9),37.535725176732?,127.095692
광진구,사파이어빌라,서울특별시 광진구 워커힐로 177 ,37.5586287308609?,127.111707
광진구,사파이어빌라,서울특별시 광진구 워커힐로 178 ,37.549277,127.101200
광진구,호텔 더디자이너스 건대점,서울특별시 광진구 천호대로 521,37.558661,127.076600
광진구,호텔컬리넌,서울특별시 광진구 동일로 214 ,37.550814,127.069177
광진구,호텔 더디자이너스 프리미어,서울특별시 광진구 동일로 172,37.547345,127.067296
광진구,호텔 더디자이너스 프리미어,서울특별시 광진구 동일로 173,37.553789,127.070915
광진구,매일온천 사우나,서울특별시 광진구 자양로53길 109 (중곡동),37.556915,127.089194
광진구,실로암 사우나 목욕탕,"서울특별시 광진구 용마산로 171, 지하1~지상2층 (중곡동)",37.569037,127.085536
광진구,프라임 노다지 사우나,"서울특별시 광진구 광나루로56길 63, 지층 (구의동, 프라임프라자상가)",37.536789,127.096161
광진구,지하1층 사우나,"서울특별시 광진구 용마산로 44, 지하1층 (중곡동)",37.557469,127.088244
광진구,칠산 24시 불가마사우나,서울특별시 광진구 자양로 135 (자양동),37.539859,127.082948
광진구,강변 스파랜드,서울특별시 광진구 구의강변로 45 (구의동),37.534885,127.091307
광진구,동방대중 사우나,서울특별시 광진구 구의강변로 46 (구의동),37.534793,127.092027
광진구,사파이어빌라,서울특별시 광진구 워커힐로 177 (광장동),37.558629,127.111707
광진구,중일가든,서울특별시 광진구 아차산로76가길 4 (광장동),37.547524,127.107499
광진구,신설설농탕,"서울특별시 광진구 천호대로 813 (광장동,7,8,9 호 1F)",37.545617,127.104136
광진구,코마찌,"서울특별시 광진구 아차산로76길 19 (광장동,(3층))",37.547346,127.108051
광진구,미림장충왕족발보쌈,서울특별시 광진구 자양로18길 11 (구의동),37.537669,127.084158
광진구,대포집,"서울특별시 광진구 자양로18길 53, 2층 (구의동)",37.538183,127.086384
광진구,콴차이,"서울특별시 광진구 자양로18길 17, 2층 (구의동)",37.537753,127.084498
광진구,아차산통닭,"서울특별시 광진구 천호대로 659, 2층 (구의동)",37.552304,127.089928
광진구,일반음식점,서울특별시 광진구 천호대로 682 (구의동),37.550105,127.090276
광진구,망향 비빔국수,"서울특별시 광진구 천호대로 694 (구의동,(1층))",37.549314,127.091239
광진구,삼일 민물장어,"서울특별시 광진구 천호대로 685, 1,2층 (구의동)",37.550240,127.091274
광진구,원조할아버지 손두부,"서울특별시 광진구 자양로 324, 약수목욕탕 1층 (구의동)",37.554076,127.094193
광진구,탐앤탐스,"서울특별시 광진구 아차산로 426, 1,2,3,4층 (구의동)",37.537842,127.089816
광진구,동서울종합터미널,"서울특별시 광진구 강변역로 50, 동서울종합터미널 2층 (구의동)",37.534539,127.094184
광진구,태평양수산회세꼬시,서울특별시 광진구 군자로 183 (군자동),37.557010,127.078237
광진구,신세계 커피/맥주,"서울특별시 광진구 능동로35길 24 (군자동,지하1층)",37.557098,127.077772
광진구,휴게음식점,"서울특별시 광진구 능동로 289 (군자동,(1층))",37.555790,127.078345
광진구,명륜진사갈비,"서울특별시 광진구 능동로36길 187, 공원갈비 1~2층 (능동)",37.552506,127.088622
광진구,계탄집 본점,"서울특별시 광진구 능동로 31, 지하1층 (자양동)",37.534278,127.067731
광진구,양마니명동찌개마을,"서울특별시 광진구 아차산로 384, 태양빌딩 1층 (자양동)",37.536668,127.085460
광진구,돈돈구이,"서울특별시 광진구 뚝섬로 621, 2층 (자양동)",37.532415,127.078762
광진구,카페 오로시,"서울특별시 광진구 자양로 131, 지층,1층 (자양동)",37.539478,127.082907
광진구,일반음식점,"서울특별시 광진구 자양번영로 77 (자양동,,137,138,139,141)",37.536395,127.076398
광진구,전설의짬뽕,"서울특별시 광진구 아차산로 242, 2층 (자양동)",37.539933,127.069904
광진구,더이퀄리브리엄 커피,"서울특별시 광진구 아차산로30길 7, 3층 (자양동)",37.540354,127.067834
광진구,이디야 커피,"서울특별시 광진구 아차산로30길 8, 2층 (자양동)",37.540400,127.067613
광진구,탐앤탐스,"서울특별시 광진구 아차산로 236, 1층,2층,3층,4층 (자양동)",37.539988,127.069354
광진구,일반음식점,"서울특별시 광진구 능동로 391, 지층 (중곡동)",37.564233,127.083083
광진구,제주탐하리,"서울특별시 광진구 천호대로101길 11 (중곡동,(1층))",37.559732,127.074653
광진구,일반음식점,서울특별시 광진구 면목로 140 (중곡동),37.565768,127.081426
광진구,명륜진사갈비,"서울특별시 광진구 용마산로 110, 토끼빌딩 1층 (중곡동)",37.563394,127.087235
광진구,일반음식점,광진구 능동로 173,37.546229,127.073332
광진구,일반음식점,"서울특별시 광진구 능동로 161, 1-2층 (화양동)",37.545296,127.072751
광진구,일반음식점,"서울특별시 광진구 아차산로29길 7, 3,4층 (화양동)",37.541317,127.068095
광진구,일반음식점,"서울특별시 광진구 아차산로31길 15, 1~2층 (화양동)",37.541797,127.069443
광진구,휴게음식점,"서울특별시 광진구 아차산로33길 60 (화양동,지상1,2,3층)",37.542870,127.071140
광진구,휴게음식점,"서울특별시 광진구 아차산로 207 (화양동,1층)",37.541519,127.066734
광진구,휴게음식점,"서울특별시 광진구 동일로22길 115 (화양동,외 92호(2층))",37.540764,127.070462
광진구,휴게음식점,"서울특별시 광진구 능동로13길 26, 1~4층 (화양동)",37.543237,127.070787
광진구,당구장업,"서울특별시 광진구 광나루로24길 37, 지층, 1층 (화양동)",37.544971,127.077174
광진구,당구장업,"서울특별시 광진구 능동로13길 39, 지층 (화양동, 한아름건물)",37.543959,127.069758
광진구,당구장업,서울특별시 광진구 군자로 52 (화양동),37.547668,127.070537
광진구,당구장업,"서울특별시 광진구 동일로22길 64, 3층 (화양동)",37.541473,127.067677
광진구,당구장업,"서울특별시 광진구 광나루로 354, 지층 (화양동)",37.547948,127.069168
광진구,당구장업,"서울특별시 광진구 아차산로 235, 5층 (화양동)",37.540613,127.069530
광진구,당구장업,서울특별시 광진구 아차산로33길 63 (화양동),37.543020,127.070973
광진구,당구장업,"서울특별시 광진구 동일로 112, 지하1층 (화양동)",37.542540,127.064491
광진구,당구장업,"서울특별시 광진구 광나루로 404, 지층 (화양동)",37.546997,127.074331
광진구,가상체험 체육시설업,"서울특별시 광진구 능동로13길 39, 한아름건물 2층 (화양동)",37.543959,127.069758
광진구,골프연습장업,"서울특별시 광진구 천호대로 512 (군자동, 군자빌딩)",37.558432,127.075309
광진구,골프연습장업,"서울특별시 광진구 군자로 70, 2층 (군자동, 동일흥업주식회사)",37.549060,127.070862
광진구,당구장업,"서울특별시 광진구 군자로 145, 2층 (군자동)",37.554557,127.075323
광진구,당구장업,서울특별시 광진구 군자로 141 (군자동),37.554308,127.074826
광진구,당구장업,"서울특별시 광진구 군자로 180, 201호 (군자동, 한창빌딩)",37.556545,127.078166
광진구,당구장업,"서울특별시 광진구 광나루로 379, 1층 (군자동)",37.548296,127.072087
광진구,당구장업,"서울특별시 광진구 천호대로 528, 지층 (군자동)",37.557847,127.076606
광진구,당구장업,"서울특별시 광진구 동일로 222, 글터빌딩 지하층 (군자동)",37.551448,127.069536
광진구,골프연습장업,"서울특별시 광진구 천호대로 553, 지하1층 (중곡동, 중곡빌딩)",37.557393,127.079912
광진구,골프연습장업,서울특별시 광진구 용마산로 21 (중곡동),37.555608,127.088013
광진구,당구장업,"서울특별시 광진구 능동로 340, 지층 (중곡동)",37.559813,127.081184
광진구,당구장업,"서울특별시 광진구 능동로 378, 지층 (중곡동)",37.562926,127.082894
광진구,당구장업,"서울특별시 광진구 천호대로 591, 지하 1층 (중곡동)",37.555869,127.083733
광진구,당구장업,"서울특별시 광진구 긴고랑로 57, 지하층 (중곡동)",37.562297,127.082817
광진구,당구장업,"서울특별시 광진구 능동로 314, 공영빌딩 지하1층 (중곡동)",37.557619,127.080040
광진구,당구장업,"서울특별시 광진구 천호대로109길 10, 2층 (중곡동)",37.557289,127.081101
광진구,골프연습장업,"서울특별시 광진구 면목로 161, 5층 (중곡동, 중곡빌딩)",37.567709,127.082032
광진구,골프연습장업,서울특별시 광진구 면목로 192 (중곡동),37.570277,127.083366
광진구,당구장업,"서울특별시 광진구 면목로 141, 지하1층 (중곡동)",37.566014,127.081155
광진구,당구장업,"서울특별시 광진구 면목로 161, 3층 (중곡동, 중곡빌딩)",37.567709,127.082032
광진구,가상체험 체육시설업,"서울특별시 광진구 능동로 409, 지1층 (중곡동)",37.565608,127.083812
광진구,골프연습장업,"서울특별시 광진구 용마산로 18, 지하1층 (중곡동)",37.555266,127.088562
광진구,당구장업,"서울특별시 광진구 용마산로 44, 3층 (중곡동)",37.557469,127.088244
광진구,당구장업,"서울특별시 광진구 영화사로 10, 2층 (중곡동)",37.557956,127.088477
광진구,당구장업,"서울특별시 광진구 천호대로129길 29, 3층 (중곡동)",37.553165,127.091124
광진구,당구장업,"서울특별시 광진구 영화사로 32, 2층 (중곡동, 덕흥빌딩)",37.556737,127.090404
광진구,당구장업,"서울특별시 광진구 용마산로 66, 2층 (중곡동)",37.559541,127.087861
광진구,골프연습장업,"서울특별시 광진구 능동로34길 27, 지하1층 (능동, 원진빌딩)",37.555256,127.081018
광진구,당구장업,"서울특별시 광진구 천호대로112길 7, 2층 (능동)",37.555651,127.081595
광진구,당구장업,"서울특별시 광진구 능동로36길 30, 2층 2호 (능동)",37.555718,127.080587
광진구,당구장업,"서울특별시 광진구 천호대로112길 19, 2층 (능동)",37.555199,127.081369
광진구,당구장업,"서울특별시 광진구 아차산로76길 5, 지하1층 (광장동)",37.548015,127.107624
광진구,당구장업,"서울특별시 광진구 아차산로73길 28, 지하1층 (광장동, 대광빌딩)",37.546432,127.103447
광진구,골프연습장업,"서울특별시 광진구 아차산로 353 (자양동, 금강태극빌)",37.537245,127.082094
광진구,당구장업,"서울특별시 광진구 아차산로 353-1, 3층 (자양동)",37.537232,127.082259
광진구,당구장업,"서울특별시 광진구 자양로11길 12, 지층 (자양동)",37.534770,127.083310
광진구,당구장업,"서울특별시 광진구 아차산로 358, 지하1층 (자양동)",37.536537,127.082393
광진구,당구장업,서울특별시 광진구 아차산로 291 (자양동),37.538743,127.075453
광진구,당구장업,서울특별시 광진구 뚝섬로 627 (자양동),37.532273,127.079407
광진구,당구장업,"서울특별시 광진구 뚝섬로 621, 3층 (자양동)",37.532415,127.078762
광진구,당구장업,서울특별시 광진구 자양로13길 73-1 (자양동),37.533291,127.080895
광진구,당구장업,"서울특별시 광진구 자양로15길 46, 지층 (자양동)",37.535475,127.081145
광진구,당구장업,"서울특별시 광진구 자양로 88, 광영빌딩 6층 (자양동)",37.535631,127.084321
광진구,당구장업,"서울특별시 광진구 자양로13길 48, 지하층 (자양동)",37.534338,127.081677
광진구,골프연습장업,"서울특별시 광진구 자양로5길 33, 지하1층 (자양동, 와이엠프라젠스파)",37.530922,127.084141
광진구,체력단련장업,"서울특별시 광진구 자양로5길 33 (자양동, 와이엠프라젠스파)",37.530922,127.084141
광진구,당구장업,"서울특별시 광진구 자양로 49, 3층 (자양동)",37.532179,127.085190
광진구,당구장업,"서울특별시 광진구 자양번영로 33 (자양동, 성보빌딩)",37.532660,127.075297
광진구,당구장업,"서울특별시 광진구 자양번영로 29, 3층 (자양동)",37.532244,127.075186
광진구,골프연습장업,"서울특별시 광진구 능동로 49, 지층 (자양동, 영지빌딩)",37.535815,127.068397
광진구,당구장업,"서울특별시 광진구 뚝섬로 498 (자양동, 서울클리닉빌딩)",37.535928,127.065428
광진구,당구장업,"서울특별시 광진구 아차산로30길 18, 2층 (자양동)",37.540057,127.067408
광진구,당구장업,"서울특별시 광진구 능동로 91, 지층 (자양동)",37.539269,127.070040
광진구,당구장업,서울특별시 광진구 동일로 88 (자양동),37.540402,127.063308
광진구,당구장업,"서울특별시 광진구 뚝섬로 486, 2층 (자양동)",37.536250,127.064268
광진구,당구장업,"서울특별시 광진구 뚝섬로 476, 2층 (자양동)",37.536481,127.063177
광진구,당구장업,"서울특별시 광진구 동일로 78, 지하1층 (자양동)",37.539541,127.062811
광진구,당구장업,"서울특별시 광진구 아차산로 236, 지하1층 (자양동)",37.539988,127.069354
광진구,당구장업,"서울특별시 광진구 아차산로51길 77, 지하1층 (구의동)",37.540477,127.084959
광진구,당구장업,"서울특별시 광진구 자양로18길 33, 지층 (구의동)",37.537995,127.085378
광진구,당구장업,"서울특별시 광진구 구의로 3, 지층 (구의동, 쌍용빌딩)",37.538281,127.088904
광진구,당구장업,"서울특별시 광진구 아차산로57길 4, 3층 (구의동)",37.538708,127.088326
광진구,당구장업,"서울특별시 광진구 자양로22길 24, 2층 (구의동, 상우빌딩)",37.539496,127.084751
광진구,당구장업,"서울특별시 광진구 구의로 25, 지층 (구의동, 석천빌딩)",37.540265,127.089462
광진구,당구장업,"서울특별시 광진구 아차산로 401, 3층 (구의동)",37.537642,127.087255
광진구,당구장업,"서울특별시 광진구 아차산로51길 39, 3층 (구의동)",37.538793,127.084801
광진구,가상체험 체육시설업,"서울특별시 광진구 아차산로 373, 지하1층 (구의동)",37.537012,127.084033
광진구,골프연습장업,"서울특별시 광진구 천호대로 676, 지하1층 (구의동)",37.550591,127.089930
광진구,당구장업,"서울특별시 광진구 천호대로 677 (구의동, 세진빌딩)",37.550812,127.090717
광진구,골프연습장업,"서울특별시 광진구 아차산로 444, 지하1층 (구의동)",37.538537,127.091936
광진구,골프연습장업,"서울특별시 광진구 구의강변로 45, 4층 (구의동, 구의동 복합빌딩)",37.534885,127.091307
광진구,골프연습장업,"서울특별시 광진구 구의강변로 106, 101동 지층 115-118호 (구의동, 구의동삼성쉐르빌)",37.539857,127.094897
광진구,당구장업,"서울특별시 광진구 광나루로56길 63 (구의동, 지하1층 101호,102호,103호)",37.536789,127.096161
광진구,당구장업,"서울특별시 광진구 구의강변로 35, 삼진빌딩 지하1층 (구의동)",37.533932,127.091376
광진구,당구장업,"서울특별시 광진구 아차산로 473, 5층 (구의동)",37.540519,127.094284
광진구,당구장업,"서울특별시 광진구 아차산로 444, 지층 103호 (구의동, 와이엔 오피스텔)",37.538537,127.091936
광진구,당구장업,"서울특별시 광진구 구의로 70 (구의동, 영덕빌딩 2층 201호)",37.544166,127.090688
광진구,당구장업,"서울특별시 광진구 강변역로4길 10, 강변역지너스타워 지하1층 9,10호 (구의동)",37.535349,127.093405
광진구,당구장업,"서울특별시 광진구 면목로 191, 2층 (중곡동)",37.570322,127.083070
광진구,당구장업,"서울특별시 광진구 용마산로 16, 창성빌딩 4층 (중곡동)",37.555051,127.088619
광진구,당구장업,"서울특별시 광진구 용마산로 28, 2층 (중곡동)",37.556219,127.088400
광진구,당구장업,서울특별시 광진구 아차산로 610 (광장동),37.547197,127.106553
광진구,게임제공업,"서울특별시 광진구 아차산로 377, 지하1층 (구의동)",37.537236,127.084760
광진구,게임제공업,"서울특별시 광진구 아차산로51길 62, 2층 (구의동)",37.539741,127.085021
광진구,게임제공업,"서울특별시 광진구 자양로22길 24 (구의동, 상우빌딩)",37.539496,127.084751
광진구,게임제공업,"서울특별시 광진구 자양로18길 20, 2층 (구의동)",37.537554,127.084579
광진구,게임제공업,"서울특별시 광진구 자양로 277, 지층 (구의동)",37.550805,127.091104
광진구,게임제공업,"서울특별시 광진구 자양로 278, 대운빌딩 지하2층 (구의동)",37.550606,127.091470
광진구,게임제공업,"서울특별시 광진구 광나루로 614 (구의동,지하1층)",37.540791,127.095834
광진구,게임제공업,"서울특별시 광진구 광나루로56길 29, 현대프라임아파트 4층 410, 411호 ",37.536958,127.096537
광진구,게임제공업,"서울특별시 광진구 구의로 4, 2층 (구의동)",37.538351,127.089290
광진구,게임제공업,"서울특별시 광진구 구의로 6, 신호빌딩 지하1층 (구의동)",37.538493,127.089347
광진구,게임제공업,"서울특별시 광진구 아차산로 471, CS PLAZA 지하1층 (구의동)",37.540419,127.093974
광진구,게임제공업,"서울특별시 광진구 아차산로 473, 4층 (구의동)",37.540519,127.094284
광진구,게임제공업,"서울특별시 광진구 군자로 141, 2층 (군자동)",37.554308,127.074826
광진구,게임제공업,"서울특별시 광진구 군자로 144, 지층 (군자동)",37.554309,127.075438
광진구,게임제공업,"서울특별시 광진구 능동로 290 (능동, 삼일빌딩)",37.555583,127.078979
광진구,게임제공업,"서울특별시 광진구 천호대로 562, 쥬얼테크 지하1층 (능동)",37.556488,127.080355
광진구,게임제공업,"서울특별시 광진구 뚝섬로 613, 우양빌딩 지하1층 (자양동)",37.532708,127.077943
광진구,게임제공업,서울특별시 광진구 자양로13길 99 (자양동),37.532622,127.080127
광진구,게임제공업,서울특별시 광진구 자양로15길 18 (자양동),37.535822,127.082545
광진구,게임제공업,"서울특별시 광진구 자양번영로 20 (자양동,자양빌딩 2층)",37.531392,127.075361
광진구,게임제공업,"서울특별시 광진구 아차산로 288, 지층 (자양동, 대흥빌딩)",37.538389,127.074911
광진구,게임제공업,서울특별시 광진구 뚝섬로 503 (자양동),37.536084,127.066022
광진구,게임제공업,"서울특별시 광진구 뚝섬로24길 3, 지하층 (자양동)",37.536282,127.063777
광진구,게임제공업,"서울특별시 광진구 아차산로 244, 지하1층 (자양동)",37.539731,127.070201
광진구,게임제공업,서울특별시 광진구 긴고랑로 52 (중곡동),37.562254,127.081906
광진구,게임제공업,"서울특별시 광진구 능동로 373, 3층 (중곡동)",37.562730,127.082267
광진구,게임제공업,"서울특별시 광진구 능동로37길 6, 지하1층 (중곡동)",37.558190,127.079577
광진구,게임제공업,"서울특별시 광진구 능동로 372, 지하1층 (중곡동)",37.562422,127.082658
광진구,게임제공업,"서울특별시 광진구 용마산로 37, 지층 (중곡동, 이안빌딩)",37.557022,127.087724
광진구,게임제공업,"서울특별시 광진구 면목로 161 (중곡동,지하1층)",37.567709,127.082032
광진구,게임제공업,"서울특별시 광진구 면목로 164 (중곡동,2층)",37.567724,127.082428
광진구,게임제공업,"서울특별시 광진구 면목로 192 (중곡동,2층)",37.570277,127.083366
광진구,게임제공업,서울특별시 광진구 면목로 203 (중곡동),37.571218,127.083230
광진구,게임제공업,"서울특별시 광진구 천호대로129길 29, 2층 (중곡동)",37.553165,127.091124
광진구,게임제공업,"서울특별시 광진구 영화사로 62-1, 지하1층 (중곡동)",37.554933,127.092956
광진구,게임제공업,"서울특별시 광진구 군자로 43, 아스하임 지하1층 (화양동)",37.547167,127.070102
광진구,게임제공업,"서울특별시 광진구 광나루로 382, 지하1,2층 (화양동, 아스하임)",37.547460,127.072065
광진구,게임제공업,"서울특별시 광진구 아차산로 241, 연한빌딩 b1층 (화양동)",37.540505,127.070150
광진구,게임제공업,"서울특별시 광진구 아차산로29길 41 (화양동,지하1층)",37.542733,127.068895
광진구,게임제공업,"서울특별시 광진구 광나루로 392, 지하1층 (화양동)",37.547302,127.073123
광진구,게임제공업,"서울특별시 광진구 능동로 123, 3, 4층 (화양동)",37.542034,127.071269
광진구,게임제공업,"서울특별시 광진구 능동로16길 60, 3층 (화양동)",37.545230,127.076296
광진구,게임제공업,"서울특별시 광진구 아차산로 229 (화양동, 지하1층)",37.540809,127.068991
광진구,만화대여업소,아차산로 224(자양동 7-25),37.540571,127.068081
광진구,만화대여업소,아차산로 370(자양동 216-21),37.536447,127.084052
광진구,동서울종합터미널,강변역로50,37.534539,127.094184
광진구,아차산배수지체육공원,천호대로731,37.539871,127.145264
광진구,리젠트오피스텔 후면,서울특별시 광진구 강변역로4길 68,37.532541,127.092579
광진구,리젠트오피스텔 좌측,서울특별시 광진구 강변역로4길 68,37.532324,127.093000
광진구,광진소방서 본관 1층 전면,서울특별시 광진구 광나루로 480,37.544966,127.082891
광진구,오렌지타워 건물 후면,서울특별시 광진구 광나루로 580,37.543170,127.093186
광진구,광진구 민방위 교육장 1층 마당,서울특별시 광진구 광나루로56길 8,37.539103,127.097769
광진구,테크노마트 9층 하늘마당 좌측,서울특별시 광진구 광나루로56길 85,37.536003,127.095395
광진구,테크노마트 9층 하늘마당 우측,서울특별시 광진구 광나루로56길 85,37.535364,127.095946
광진구,테크노마트 동측 주차장,서울특별시 광진구 광나루로56길 85,37.535447,127.096089
광진구,테크노마트 9층 하늘공원 우측,서울특별시 광진구 광나루로56길 85,37.536160,127.096129
광진구,새천년관 대공연장 좌측,서울특별시 광진구 능동로 120,37.543179,127.076820
광진구,건국대학교 법학관 앞,서울특별시 광진구 능동로 120,37.541850,127.074961
광진구,건국대학교 공학관,서울특별시 광진구 능동로 120,37.541626,127.079323
광진구,세종대학교 충무관 앞,서울특별시 광진구 능동로 209,37.552280,127.073718
광진구,세종대학교 집현관 좌측,서울특별시 광진구 능동로 209,37.548970,127.073955
광진구,세종대학교 도서관 우측,서울특별시 광진구 능동로 209,37.550435,127.073697
광진구,세종대학교 광개토관 우측,서울특별시 광진구 능동로 209,37.550507,127.073512
광진구,세종대학교 학생회관,서울특별시 광진구 능동로 209,37.549693,127.075249
광진구,세종대학교 애지헌 앞,서울특별시 광진구 능동로 209,37.550572,127.074380
광진구,세종대학교 군자관 앞,서울특별시 광진구 능동로 209,37.549612,127.073484
광진구,더클래식500 시설 중앙,서울특별시 광진구 능동로 92,37.538849,127.071170
광진구,커먼그라운드 3층 좌측-1,서울특별시 광진구 아차산로 200,37.540868,127.066013
광진구,커먼그라운드 3층 우측,서울특별시 광진구 아차산로 200,37.540868,127.066013
광진구,SK네트웍스(주) 워커힐 수영장 좌측,서울특별시 광진구 워커힐로 177,37.555449,127.110608
광진구,SK네트웍스(주) 워커힐 수영장 후면,서울특별시 광진구 워커힐로 177,37.555449,127.110608
광진구,SK네트웍스(주) 워커힐 비스타 1층 ,서울특별시 광진구 워커힐로 177,37.555449,127.110608
광진구,SK네트웍스(주) 워커힐 주차장 전면,서울특별시 광진구 워커힐로 177,37.555449,127.110608
광진구,정립회관수영장 북측 모통이,서울특별시 광진구 워커힐로 93,37.550496,127.097868
광진구,정립회관수영장 서측 모퉁이,서울특별시 광진구 워커힐로 93,37.550496,127.097868
광진구,웰츠타워 건물 좌측,서울특별시 광진구 자양로 116,37.538397,127.083988
광진구,신도브래뉴오피스텔 후면,서울특별시 광진구 자양로 138,37.539964,127.083649
광진구,한국보건의료인국가시험원 ,서울특별시 광진구 자양로 45,37.531850,127.085416
광진구,건국대학교 행정관 뒤,서울특별시 광진구 능동로 120,37.543222,127.074883
광진구,건국대학교 학생회관 좌측,서울특별시 광진구 능동로 120,37.541316,127.077305
광진구,건국대학교 인문관뒤,서울특별시 광진구 능동로 120,37.542516,127.078796
광진구,건국대학교 신공학관,서울특별시 광진구 능동로 120,37.540848,127.079338
광진구,건국대학교 수의과학관 뒤,서울특별시 광진구 능동로 120,37.540337,127.074363
광진구,건국대학교 생명과학관 우측,서울특별시 광진구 능동로 120,37.541003,127.074001
광진구,건국대학교 상허연구관,서울특별시 광진구 능동로 120,37.544168,127.075364
광진구,건국대학교 상허도서관 입구,서울특별시 광진구 능동로 120,37.542031,127.073782
광진구,건국대학교 경영관뒤,서울특별시 광진구 능동로 120,37.544496,127.076051
구로구,고척 돔구장,서울특별시 구로구 경인로 430,37.498213,126.867089
구로구,구로성심병원,서울특별시 구로구 경인로 427,37.499647,126.866358
구로구,고대구로병원,서울특별시 구로구 구로동로 148,37.491180,126.884638
구로구,지하이시티,서울특별시 구로구 디지털로 243,37.481992,126.892349
구로구,대륭포스트타워 1차,서울특별시 구로구 디지털로 288,37.483570,126.895503
구로구,대륭포스트타워 2차,서울특별시 구로구 디지털로 306,37.485923,126.897336
구로구,대륭포스트타워 3차,서울특별시 구로구 디지털로34길 27,37.485473,126.898223
구로구,코오롱디지털타워빌란트,서울특별시 구로구 디지털로32길 30,37.483390,126.896520
구로구,삼성아이티밸리,서울특별시 구로구 디지털로33길 27,37.486057,126.894669
구로구,코오롱싸이언스밸리 2차,서울특별시 구로구 디지털로34길 55,37.484286,126.899282
구로구,우림이비지센터 1차,서울특별시 구로구 디지털로33길 28,37.486982,126.895315
구로구,이엔씨벤쳐드림타워 2차,서울특별시 구로구 디지털로33길 55,37.486759,126.893045
구로구,에이스테크노타워 2차,서울특별시 구로구 디지털로31길 19,37.484876,126.893767
구로구,에이스테크노타워 3차,서울특별시 구로구 디지털로29길 38,37.484498,126.893311
구로구,에이스하이엔드타워 1차,서울특별시 구로구 디지털로26길 5,37.481611,126.893479
구로구,JNK 디지털타워,서울특별시 구로구 디지털로32길 29,37.484878,126.897299
구로구,지플러스(G+)타워,서울특별시 구로구 디지털로26길 123,37.483082,126.897700
구로구,신도림테크노마트,서울특별시 구로구 새말로 97 북서쪽 철로변측 인도공간,37.507040,126.890200
구로구,신도림역,서울특별시 구로구 새말로 117-21 신도림역 2번출구,37.509040,126.891200
노원구,중계근린공원 주차장,서울특별시 노원구 중계동 507 중계근린공원 주차장 내,37.639654,127.065132
노원구,등나무문화공원 주차장,서울특별시 노원구 중계동 508-1 등나무문화공원 주차장 내,37.640440,127.067693
동대문구,완전폐쇄형,대한민국 서울특별시 동대문구 경희대로 20,37.593276,127.052866
동대문구,완전폐쇄형,빅히트스크린야구(이문로 82) 테라스,37.594209,127.059165
동대문구,개방형,천호대로 307 (답십리동) 10층,37.565798,127.054762
동대문구,완전개방형,고미술로 100(답십리동) 옥상,37.563859,127.057348
동대문구,개방형,천호대로 329(답십리동) 1층,37.564406,127.056618
동대문구,완전개방형,한천로11길 6(답십리동) 옥상,37.567371,127.061931
동대문구,완전개방형,홍릉로 58(청량리동) 1층,37.585470,127.043891
동대문구,완전폐쇄형,회기로 47(청량리동) 1층,37.595024,127.042170
동대문구,완전폐쇄형,회기로 57(청량리동) 1층,37.594011,127.044831
동대문구,완전개방형,왕산로 61(용두동) 옥상,37.578020,127.030039
동대문구,개방형,왕산로 25(신설동) 옥상,37.576822,127.026127
동대문구,완전개방형,왕산로 21(신설동) 옥상,37.576803,127.025797
동대문구,개방형,왕산로 19(신설동) 옥상,37.576709,127.025525
동대문구,개방형,왕산로 15(신설동) 옥상,37.576530,127.025013
동대문구,개방형,왕산로 4(신설동) 테라스,37.575608,127.024043
동대문구,개방형,왕산로 117(제기동) 옥상,37.578496,127.036493
동대문구,개방형,왕산로 127(제기동) 옥상,37.578447,127.037540
동대문구,개방형,장한로 91(장안동) 1층,37.569150,127.069335
동대문구,개방형,한천로14길 87(장안동) 1층,37.566347,127.067559
동대문구,개방형,천호대로 151(용두동) 1층,37.573713,127.040256
동대문구,완전개방형,이문로 156(이문동) 옥상,37.600446,127.062241
동대문구,완전개방형,이문로 199(이문동) 1층,37.604288,127.061825
동대문구,완전개방형,장한로 40(장안동) 옥상,37.564695,127.067008
동대문구,폐쇄형,청계천로 447(신설동) 1층,37.571119,127.027034
동대문구,폐쇄형,난계로28길 23(신설동) 3층,37.572896,127.024645
동대문구,완전개방형,난계로 250(신설동) 옥상,37.573769,127.023683
동대문구,완전개방형,난계로30길 27(신설동)옥상,37.574225,127.025002
동대문구,완전개방형,청계천로 439(신설동) 1층,37.571384,127.026138
동대문구,완전폐쇄형,청계천로 447(신설동) 1층,37.571119,127.027034
동대문구,완전개방형,왕산로 4(신설동) 옥상,37.575608,127.024043
동대문구,개방형,천호대로 26(신설동) 옥상,37.573964,127.025747
동대문구,완전개방형,왕산로6(신설동) 옥상,37.575724,127.024461
동대문구,완전개방형,답십리로 303(장안동) 옥상,37.572405,127.074051
동대문구,폐쇄형,이문로 197(이문동) 1층,37.604120,127.061818
동대문구,개방형,답십리로 294(장안동) 2층,37.572039,127.072977
동대문구,개방형,답십리로92길 68(장안동) 1층,37.580441,127.072295
동대문구,개방형,회기로 123(회기동) 옥상,37.591623,127.050353
동대문구,개방형,사가정로 229(장안동) 1층,37.578947,127.070553
동대문구,개방형,한천로46길 2(장안동) 1층,37.577913,127.070038
동대문구,완전폐쇄형,답십리로 29(답십리동) 3층,37.574081,127.058774
동대문구,개방형,회기로 66(청량리동) 1층,37.590726,127.044897
동대문구,개방형,한천로 272(휘경동) 1층,37.585525,127.068805
동대문구,개방형,답십리로64길 103(장안동) 1층,37.568493,127.065207
동대문구,개방형,장한로 47(장안동) 1층,37.565372,127.066911
동대문구,개방형,이문로 136(이문동) 1층,37.598492,127.061886
동대문구,개방형,망우로 60(휘경동) 옥상,37.589196,127.060028
동대문구,완전폐쇄형,망우로12길 6(휘경동) 1층,37.587660,127.054730
동대문구,개방형,사가정로 272(장안동) 1층,37.579628,127.075050
동대문구,개방형,사가정로 203(전농동) 1층,37.578840,127.067494
동대문구,개방형,천호대로 395 2(장안동) 옥상,37.562037,127.063142
동대문구,개방형,천호대로 393(장안동) 옥상,37.562231,127.062744
동대문구,개방형,천호대로 381(장안동) 옥상,37.562308,127.061386
동대문구,개방형,천호대로 357(장안동) 1층,37.562730,127.058964
동대문구,개방형,청계천로 439(용두동) 1층,37.571384,127.026138
동대문구,개방형,왕산로 6(신설동) 1층,37.575724,127.024461
동대문구,개방형,왕산로 4(신설동) 옥상,37.575608,127.024043
동대문구,개방형,황물로 60(답십리동) 옥상,37.572146,127.047719
동대문구,개방형,장한로10길 9(장안동) 1층,37.565421,127.067926
동대문구,개방형,장한로 120(장안동) 옥상,37.571046,127.071267
동대문구,개방형,한천로 77(답십리동) 테라스 2층,37.568649,127.063206
동대문구,폐쇄형,장안벚꽃로 279(휘경동) 1층,37.583859,127.072617
동대문구,개방형,왕산로 71(용두동) 옥상,37.578227,127.031220
동대문구,개방형,장한로 22(장안동) 1층,37.563217,127.066127
동대문구,폐쇄형,천호대로 433(장안동) 1층,37.561454,127.067111
동대문구,개방형,천호대로 437(장안동) 옥상,37.561406,127.067645
동대문구,개방형,홍릉로 28(청량리동) 옥상,37.582822,127.044683
동대문구,개방형,천호대로 444 1(장안동) 옥상,37.564327,127.069741
동대문구,개방형,장한로2길 62(장안동) 1층,37.561559,127.068587
동대문구,개방형,회기로 37(청량리동) 1층,37.591571,127.040070
동대문구,개방형,왕산로 53(용두동) 1층,37.577680,127.029201
동대문구,개방형,동대문구청(천호대로 145) 1층,37.574418,127.039749
동대문구,완전폐쇄형,동대문구민회관(장한로18길 82 9) 1층,37.567237,127.073340
동대문구,개방형,동대문소방서(장한로 34) 1층,37.564022,127.066838
동대문구,개방형,동대문우체국(천호대로 4) 1층,37.574805,127.023802
동대문구,폐쇄형,서울명병원(고산자로 421) 옥상,37.577196,127.037931
동대문구,개방형,멘토스병원(한천로 49) 옥상,37.566540,127.061684
동대문구,완전개방형,대한민국정형외과(장한로 200) 1층,37.578275,127.072508
동대문구,개방형,경희의료원(경희대로 23) 1층,37.594228,127.051226
동대문구,개방형,브레인요양병원(장한로32길 7) 옥상,37.575256,127.072777
동대문구,개방형,참튼튼병원(답십리로 261) 옥상,37.572775,127.069348
동대문구,폐쇄형,삼육서울병원(망우로 82) 1층,37.589321,127.064443
동대문구,개방형,동부시립병원(무학로 124) ,37.575340,127.031520
동대문구,개방형,주식회사호텔케이피(회기로 188 5)1층,37.589404,127.056786
동대문구,완전개방형,CMS INN.SEOUL(회기로 188 12)옥상,37.589362,127.056639
동대문구,개방형,더리센츠호텔(천호대로 383) 1층,37.562275,127.061651
동대문구,개방형,골든씨티호텔(천호대로 377)1층,37.539871,127.145264
동대문구,개방형,한빛로 12(신설동) 1층,37.576758,127.024889
동대문구,완전폐쇄형,래미안엘파인아파트한천로37길 33(답십리동) 1층,37.575761,127.065300
동대문구,개방형,장한로 37(장안동) 1층,37.564615,127.066424
동대문구,완전폐쇄형,"장한로2길 33, 2층",37.562294,127.067218
동대문구,개방형,왕산로 214 1층,37.584197,127.051145
동대문구,개방형,천호대로 421 옥상,37.561627,127.065927
동대문구,완전개방형,장한로6 옥상,37.561905,127.065382
동작구,노량진컵밥거리,서울특별시 동작구 노량진로 174,37.513462,126.945294
서대문구,서대문구청,연희로248,37.579155,126.936759
서대문구,서대문구청,연희로248,37.579155,126.936759
서대문구,서대문소방서,연희로182,37.573205,126.935996
서대문구,상수도사업본부,서소문로51,37.561910,126.966751
서대문구,서대문우체국,성산로20길 9,37.560844,126.932091
서대문구,서대문경찰서,통일로113,37.565085,126.967074
서대문구,경찰청,통일로97,37.564213,126.966863
서대문구,국민연금공단,충정로36,37.561961,126.964488
서대문구,KT&G,충정로60,37.563863,126.966155
서대문구,연세세브란스병원,연세로50-1,37.563674,126.941918
서대문구,경기대학교,경기대로44,37.563181,126.962462
서대문구,디지털서울문화예술대,통일로37길 51,37.586051,126.944363
서대문구,명지전문대,가좌로134,37.585283,126.925648
서대문구,명지대,거북골로34,37.580377,126.921349
서대문구,한국방송예술진흥원,신촌로197,37.557224,126.947953
서대문구,KT가좌지사,응암로121,37.583732,126.913644
서대문구,지오영빌딩,성산로321,37.566601,126.926019
서대문구,영화의료기빌딩,성산로263,37.567338,126.919616
서대문구,성공타워,수색로56,37.570815,126.912242
서대문구,진양빌딩,경기대로47,37.563821,126.962377
서대문구,KT아현지사,경기대로9,37.560302,126.961724
서대문구,동아일보,충정로29,37.561939,126.963332
서대문구,충정빌딩,통일로135,37.566428,126.965458
서대문구,웨스트게이트타워,충정로70,37.565308,126.963772
서대문구,골든브리지빌딩,충정로50,37.562962,126.965135
서대문구,충정타워,서소문로21,37.559894,126.964086
서대문구,종근당,충정로8,37.559734,126.963207
서대문구,SK리쳄블,서소문로45,37.561288,126.966248
서대문구,대림통상,연희로142,37.569933,126.933707
서대문구,신촌빌딩,신촌로73,37.556307,126.934520
서대문구,백련빌딩,연희로407,37.591288,126.940485
서대문구,백상빌딩,신촌로231,37.557423,126.951589
서대문구,유인빌딩,신촌로183,37.557071,126.946322
서대문구,YBM,신촌로113,37.555974,126.938570
서대문구,풍산빌딩,충정로23,37.561143,126.962945
서대문구,현대백화점,연세로13,37.556738,126.936560
서대문구,현대백화점,신촌로83,37.556083,126.935845
서대문구,서대문구청,서울특별시 서대문구 연희로248,37.579155,126.936759
서대문구,서대문소방서,서울특별시 서대문구 연희로182,37.573205,126.935996
서대문구,상수도사업본부,서울특별시 서대문구 서소문로51,37.561910,126.966751
서대문구,서대문우체국,서울특별시 서대문구 성산로20길 9,37.560844,126.932091
서대문구,서대문경찰서,서울특별시 서대문구 통일로113,37.565085,126.967074
서대문구,경찰청,서울특별시 서대문구 통일로97,37.564213,126.966863
서대문구,국민연금공단,서울특별시 서대문구 충정로36,37.561961,126.964488
서대문구,KT&G,서울특별시 서대문구 충정로60,37.563863,126.966155
서대문구,연세세브란스병원,서울특별시 서대문구 연세로50-1,37.563674,126.941918
서대문구,경기대학교,서울특별시 서대문구 경기대로44,37.563181,126.962462
서대문구,디지털서울문화예술대,서울특별시 서대문구 통일로37길 51,37.586051,126.944363
서대문구,명지전문대,서울특별시 서대문구 가좌로134,37.585283,126.925648
서대문구,명지대,서울특별시 서대문구 거북골로34,37.580377,126.921349
서대문구,한국방송예술진흥원,서울특별시 서대문구 신촌로197,37.557224,126.947953
서대문구,KT가좌지사,서울특별시 서대문구 응암로121,37.583732,126.913644
서대문구,지오영빌딩,서울특별시 서대문구 성산로321,37.566601,126.926019
서대문구,영화의료기빌딩,서울특별시 서대문구 성산로263,37.567338,126.919616
서대문구,성공타워,서울특별시 서대문구 수색로56,37.570815,126.912242
서대문구,진양빌딩,서울특별시 서대문구 경기대로47,37.563821,126.962377
서대문구,KT아현지사,서울특별시 서대문구 경기대로9,37.560302,126.961724
서대문구,동아일보,서울특별시 서대문구 충정로29,37.561939,126.963332
서대문구,충정빌딩,서울특별시 서대문구 통일로135,37.566428,126.965458
서대문구,웨스트게이트타워,서울특별시 서대문구 충정로70,37.565308,126.963772
서대문구,골든브리지빌딩,서울특별시 서대문구 충정로50,37.562962,126.965135
서대문구,충정타워,서울특별시 서대문구 서소문로21,37.559894,126.964086
서대문구,종근당,서울특별시 서대문구 충정로8,37.559734,126.963207
서대문구,SK리쳄블,서울특별시 서대문구 서소문로45,37.561288,126.966248
서대문구,대림통상,서울특별시 서대문구 연희로142,37.569933,126.933707
서대문구,신촌빌딩,서울특별시 서대문구 신촌로73,37.556307,126.934520
서대문구,백련빌딩,서울특별시 서대문구 연희로407,37.591288,126.940485
서대문구,백상빌딩,서울특별시 서대문구 신촌로231,37.557423,126.951589
서대문구,유인빌딩,서울특별시 서대문구 신촌로183,37.557071,126.946322
서대문구,YBM,서울특별시 서대문구 신촌로113,37.555974,126.938570
서대문구,풍산빌딩,서울특별시 서대문구 충정로23,37.561143,126.962945
서대문구,현대백화점,서울특별시 서대문구 연세로13,37.556738,126.936560
서대문구,현대백화점,서울특별시 서대문구 신촌로83,37.556083,126.935845
서초구,교보타워,교보타워(강남대로 465) 부지주차장 진입로 옆,37.503721,127.024097
서초구,엘타워,강남대로 213 엘타워 뒤 주차장 진입로 옆,37.482767,127.034950
서초구,서울가정법원,서울가정행정법원 청사 출입계단 밑,37.481252,127.036313
서초구,센트럴시티,고속버스터미널역 3번출구 앞,37.473293,127.031210
서초구,서초구보건소,강남역 7번 출구와 8번출구 사이 보도 서초동 1319-5 앞,37.497331,127.027267
서초구,서초구보건소,방배역 3번출구 먹자골목 입구방배동 910-9 옆,37.482179,126.996887
서초구,서초구보건소,서초대로 78길 24 서초동 1327-5 스타벅스 앞,37.495627,127.027721
서초구,서초구보건소,서초대로 78길 42 서초동 1330-18 현대기림오피스텔 앞,37.494017,127.028205
서초구,서초구보건소,방배천복개도로 명동칼국수(방배동 450-14) 앞,37.485761,126.993725
서초구,서초구보건소,서희타워(서초동1366-4) 옆 이면도로,37.484691,127.032941
서초구,센트럴시티,센트럴시티 호남선 출입구 옆,37.504893,127.003216
서초구,서초구보건소,원지동 23 서초종합체육센터 입구,37.459356,127.040761
서초구,센트럴시티,센트럴시티 경부선 하차장 옆,37.504487,127.004495
서초구,서초구청,서초구청 주차장 자판기 옆,37.483587,127.032699
서초구,서초구보건소,방배동 438-38(서울시공공자전거 수리센터  앞) ,37.484021,126.982446
서초구,서초구보건소,방배천복개도로 방배경찰서방배동 455-10 앞,37.481405,126.983020
서초구,서초구보건소,방배천복개도로 그린골프장방배동 452-1 앞,37.478918,126.982937
서초구,우리동성개발,강남대로 221 양재환승주차장 세븐일레븐 편의점 옆,37.483685,127.034118
서초구,서초구보건소,양재천로21길 29 앞 녹지 사이 보도,37.477006,127.039151
서초구,서초구보건소,바우뫼로 128 비스텔타워 후면 전신주 주변,37.475519,127.035163
서초구,서초구보건소,양재동 261-22 양재천 족구장 기존 흡연구역,37.476117,127.041707
서초구,서초구보건소,마방로10길 25 건물 주차장 기업은행 지주간판 도로,37.476615,127.043923
서초구,서초구보건소,논현로1길 23 아파트 외부 보도 가각지점,37.471522,127.050404
서초구,서초구보건소,논현로1길 83 앞 녹지 옆 기존 흡연구역,37.469654,127.047814
서초구,서초구보건소,강남대로8길 77 동산마을구립주차장 내,37.470046,127.044349
서초구,서초구보건소,강남대로6길 60-23 건물 후면 양재대로변 ,37.467588,127.044911
서초구,서초구보건소,강남대로4길 5 카센터 앞 보도,37.466841,127.042480
서초구,서초구보건소,강남대로6길 16 건물 앞 녹지사이 보도,37.467196,127.042029
서초구,서초구보건소,강남대로8길 3 건물 앞 보도 끝지점,37.467835,127.041319
서초구,서초구보건소,강남대로10길 21 건물 앞 녹지사이 보도,37.468600,127.040483
서초구,서초구보건소,마방로2길 26 건물 앞 녹지사이 보도,37.472505,127.039141
서초구,서초구보건소,강남대로30길 7 카센터 옆 기존 주차구역(영동교회 맞은편),37.482392,127.039650
서초구,서초구보건소,남부순환로 2636 건물 우측 골목(오선채 좌측골목),37.484859,127.038509
서초구,서초구보건소,강남대로 148 서울마더스성형외과 앞 녹지 사이 보도,37.477888,127.039180
서초구,서초구보건소,양재천로21길 3 건물 앞 보도 가각지점,37.475804,127.039151
서초구,서초구보건소,양재천로19길 34 건물 앞 녹지 사이 보도,37.476852,127.038161
서초구,서초구보건소,바우뫼로21길 10 진입로 입구,37.475894,127.035023
서초구,서초구보건소,강남대로27길 7-9 느린마을양조장 앞,37.478945,127.037960
서초구,서초구보건소,논현로 31 빌딩 앞 사거리 가각지점,37.473707,127.048316
서초구,서초구보건소,논현로 27 소호정 주차장,37.473254,127.048681
서초구,서초구보건소,논현로 71 평가옥 앞 ,37.476282,127.045617
서초구,서초구보건소,동산로2길 27 한성생고기 앞,37.468744,127.042644
서초구,서초구보건소,양재동 316 띠녹지 안,37.470734,127.039266
서초구,서초구보건소,강남대로27 AT센터 앞,37.468279,127.039136
서초구,서초구보건소,서초동 1500-6 꽃마을1소공원 남측 부지 내 ,37.490488,127.007105
서초구,서초구보건소,사당역 1번 출구와 2번 출구 사이 보도,37.476559,126.981633
서초구,서초구보건소,반포동 63-7(반포효성빌딩 페라리 매장 앞),37.500699,127.003260
성동구,성동구보건소,서울특별시 성동구 성수동1가 686-709,37.543610,127.042819
성동구,성동구보건소,서울특별시 성동구 성수동1가 656-3,37.542663,127.045199
성동구,성동구보건소,서울특별시 성동구 행당동 1-182,37.561204,127.039161
성동구,성동구보건소,서울특별시 성동구 도선동 58-1,37.562802,127.033978
성동구,성동구보건소,서울특별시 성동구 성수동2가 276-5,37.543080,127.060641
성동구,성동구보건소,서울특별시 성동구 성수동2가 325-2,37.540264,127.055081
성동구,성동구보건소,서울특별시 성동구 성수동2가 277-43,37.543873,127.061298
성동구,성동구보건소,서울특별시 성동구 성수동2가 315-61,37.543592,127.055661
성동구,성동구보건소,서울특별시 성동구 성수동1가 13-164,37.547478,127.049896
성동구,성동구보건소,서울특별시 성동구 성수동2가 280,37.546672,127.066125
성북구,성북구보건소,성북구보건소 10층 옥상,37.602693,127.039534
성북구,성북구청,성북구청 12층 옥상,37.589366,127.016743
성북구,고대병원,고려대학교 안암병원출입구 앞 통행로,37.587069,127.026249
성북구,성북중앙병원,성북중앙병원 옥상,37.596875,127.035640
성북구,국민대학교,국민대학교 북악관 뒤,37.612224,126.996855
성북구,국민대학교,국민대학교 도서관 옆,37.610869,126.997289
성북구,서경대학교,서경대 북악관 앞,37.614886,127.013351
성북구,한성대학교,한성대학교 학송관 옆,37.583311,127.009522
성북구,현대백화점,현대백화점 미아점 옥상,37.608076,127.028868
성북구,이마트,이마트 미아점 주차동 1층,37.610856,127.029728
성북구,유타몰,유타몰 뒤,37.592541,127.017087
성북구,밀르몽,밀르몽 옥상,37.572747,126.991094
성북구,삼청각 한식당,삼청각 한식당 주차장 뒤,37.597287,126.984151
성북구,보건소,성북구보건소 10층 옥상,37.602693,127.039534
성북구,청사,성북구청 12층 옥상,37.589366,127.016743
성북구,의료기관,고려대학교 안암병원출입구 앞 통행로,37.587069,127.026249
성북구,의료기관,성북중앙병원 옥상,37.596875,127.035640
성북구,대학교,국민대학교 북악관 뒤,37.612224,126.996855
성북구,대학교,국민대학교 도서관 옆,37.610869,126.997289
성북구,대학교,서경대 북악관 앞,37.614886,127.013351
성북구,대학교,한성대학교 학송관 옆,37.583311,127.009522
성북구,대규모점포,현대백화점 미아점 옥상,37.608076,127.028868
성북구,대규모점포,이마트 미아점 주차동 1층,37.610856,127.029728
양천구,양천구청,양천구청 부지,37.516951,126.866564
양천구,양천구청,해누리타운 4층 옥외정원,37.515928,126.863815
양천구,양천경찰서,양천경찰서 부지,37.524740,126.855391
양천구,남부지방법원,남부지방법원 후문 옆,37.521572,126.863546
양천구,양천세무서,양천세무서 부지 우측,37.520511,126.869954
양천구,출입국관리사무소,서울시 출입국관리사무소 부지,37.550263,126.997083
양천구,법무복지공단,법무복지공단 부지,37.524740,126.855391
양천구,이대목동병원,이대목동병원 부지,37.536379,126.886432
양천구,홍익병원,홍익병원 옥상,37.528491,126.863662
양천구,서남병원,서남병원 부지,37.511931,126.833204
양천구,현대백화점,현대백화점 4층,37.524740,126.855391
양천구,방송회관,방송회관 7층,37.526933,126.871388
양천구,상운맘모스빌딩,상운맘모스빌딩 옥상,37.517622,126.853705
양천구,양천벤처타운 ,양천벤처타운 부지,37.512198,126.850660
양천구,현대41타워,현대41타워 부지,37.528116,126.875846
양천구,SBS,SBS 부지,37.524740,126.855391
양천구,KT 목동타워,KT 목동타워 부지,37.528696,126.871866
양천구,KT 정보센터,KT 정보센터 부지,35.833689,127.118800
양천구,목동아이스링크,목동아이스링크 부지,37.530775,126.879285
양천구,메디컬센터,메디컬센터 옥상,37.524740,126.855391
양천구,양천차고지,양천차고지 1층,37.507919,126.836424
양천구,현대드림타워,현대드림타워 후문 부지,37.527498,126.871605
양천구,부영그린타운 3차,부영그린타운 3차 부지,37.536739,126.882187
영등포구,한강프리젠,서울 영등포구 양평로24길 16,37.539800,126.893700
영등포구,프리가,서울 영등포구 신길동 1323,37.512500,126.923800
영등포구,에이스 테크노타워,서울 영등포구 당산로2길 12,37.515000,126.895900
영등포구,고려빌딩,서울 영등포구 여의대방로67길 8,37.519300,126.931400
영등포구,리버타워오피스텔,서울 영등포구 63로 36 지하2층,37.519500,126.938600
영등포구,금강빌딩,서울 영등포구 국회대로70길 22,37.528604,126.920623
영등포구,영등포아트자이아파트,,37.510200,126.899600
영등포구,데시잉루브,서울 영등포구 당산로 203,37.532200,126.900000
영등포구,금산빌딩,서울 영등포구 국회대로 750,37.528200,126.916500
영등포구,홍진빌딩,서울 영등포구 가마산로 356,37.500400,126.898600
영등포구,리앤나빌리지,서울 영등포구 국회대로 36길 17,37.525600,126.898200
영등포구,중앙빌딩,서울 영등포구 국제금융로8길 19,37.520800,126.929200
영등포구,JB빌딩,서울 영등포구 여의나루로 77,37.523900,126.927400
영등포구,금융투자센터빌딩,서울 영등포구 의사당대로 143 금융투자센터,37.519000,126.927400
영등포구,아이에스비즈타워 1차,서울 영등포구 양평로21길 26,37.535800,126.891900
영등포구,LG트윈타워빌딩,서울 영등포구 여의대로 128,37.527700,126.929200
영등포구,오성빌딩,서울 영등포구 국회대로76길 18,37.530000,126.922300
영등포구,토산빌딩,서울 영등포구 국회대로54길 35,37.522400,126.909500
영등포구,도림시장㈜,서울 영등포구 도영로 50,37.509700,126.898600
영등포구,우림이비지센터,서울 영등포구 양산로 43,37.525500,126.887800
영등포구,제일빌딩,서울 영등포구 여의대방로 379,37.519100,126.930900
영등포구,에이스하이테크시티2,서울 영등포구 선유로13길 25,37.519100,126.886400
영등포구,에이스하이테크시티,서울 영등포구 경인로 775,37.514400,126.899200
영등포구,SK V1 center,서울 영등포구 당산로41길 11,37.530600,126.898600
영등포구,아이에스비즈타워 2차,서울 영등포구 선유로49길 23,37.536100,126.895200
영등포구,은석 오피스텔,서울 영등포구 국회대로55길 4,37.525700,126.908600
영등포구,하나비즈타워,서울 영등포구 영등포로 103,37.522000,126.893200
영등포구,유성빌딩,서울 영등포구 여의도동 여의대방로69길 28,37.521300,126.930100
영등포구,대륭빌딩,서울 영등포구 선유로 27,37.516500,126.888100
영등포구,태양빌딩,서울 영등포구 여의대방로67길 22,37.520200,126.929400
영등포구,백상빌딩,서울 영등포구 국제금융로6길 30,37.521700,126.926600
영등포구,센터플러스,서울 영등포구 경인로82길 3-4,37.512100,126.897000
영등포구,"선유도우림아이온스밸리 A,B동",서울 영등포구 양평로 149,37.538800,126.891500
영등포구,금강펜테리움IT타워,서울 영등포구 당산로 171,37.529800,126.898200
영등포구,타원벨라움,서울 영등포구 도신로15길 37,37.508200,126.896200
영등포구,데시앙루브,서울 영등포구 당산로 203,37.532200,126.900000
영등포구,문래임광그대가,서울 영등포구 선유로 71,37.520100,126.889100
영등포구,양평 이노플렉스,서울 영등포구 양산로 57-5,37.525300,126.889300
영등포구,삼성타운,서울 영등포구 당산동5가,37.531800,126.900900
영등포구,한서리버파크,서울 영등포구 여의서로 43,37.530700,126.923900
영등포구,트리플렉스,서울 영등포구 문래북로 116 트리플렉스,37.519400,126.898100
영등포구,아라비즈타워,서울 영등포구 문래로 83,37.519800,126.891200
영등포구,에이스테크노타워,서울 영등포구 당산로2길 12,37.515000,126.894900
영등포구,선유로코오롱디지털타워,서울 영등포구 양평로22길 21,37.539600,126.895000
영등포구,한양아이크랠스,서울 영등포구 영신로 228-6,37.527359,126.904083
영등포구,양평우림보보카운티,서울 영등포구 양산로7길 3,37.525600,126.887100
영등포구,하우스디비즈 지식산업센터,서울 영등포구 선유로3길 10,37.520200,126.897900
영등포구,홍우빌딩,서울 영등포구 국제금융로 78,37.520800,126.931400
영등포구,가든빌딩,서울 영등포구 국회대로72길 22,37.528900,126.921300
영등포구,삼성 코코빌,서울 영등포구 선유서로25길 34,37.525200,126.882600
영등포구,정우빌딩,서울 영등포구 은행로 29,37.528900,126.922000
영등포구,월드메르디앙비즈센터,서울 영등포구 양산로 53,37.525400,126.888900
영등포구,맨하탄빌딩,서울 영등포구 국제금융로6길 33,37.520700,126.926900
영등포구,NH투자증권본사,서울 영등포구 여의대로 108 파크원 NH금융타워(타워2),37.524400,126.923200
영등포구,코레일유통,서울 영등포구 국회대로612,37.525800,126.902300
영등포구,한국우편사업진흥원,서울 영등포구 영중로 83,37.523800,126.905200
영등포구,대림중앙시장,서울 영등포구 디지털로37나길 15,37.491000,126.899300
영등포구,여의도 한화증권 앞,서울 영등포구 여의대로 56,37.523600,126.922600
영등포구,여의도 오투타워 앞,서울 영등포구 의사당대로 83,37.523100,126.922900
영등포구,여의도 한화손해빌딩 앞,서울 영등포구 여의대로 56,37.523700,126.922100
영등포구,한국교직원공제회관 앞,서울 영등포구 여의나루로 50,37.522200,126.925300
영등포구,여의도역3번출구 뒤쪽,서울 영등포구 국제금융로2길 37,37.522500,126.923800
영등포구,상희익스콘벤터타워 1,서울 영등포구 국제금융로2길 37,37.527100,126.919400
영등포구,상희익스콘벤터타워 2,서울 영등포구 국제금융로2길 37,37.527200,126.919700
영등포구,한국투자증권 앞,서울 영등포구 의사당대로 88 한국투자증권빌딩,37.522500,126.922600
영등포구,한국거래소 앞1,서울 영등포구 여의나루로 76,37.522800,126.926800
영등포구,한국거래소 앞2,서울 영등포구 여의나루로 76,37.522700,126.926800
영등포구,파크원,서울 영등포구 여의대로 108 파크원 NH금융타워(타워2),37.313300,126.554100
용산구,한국철도공사,서울특별시 용산구 서울역 광장 15번출구,37.553149,126.968881
용산구,한국철도공사,서울특별시 용산구 서울역 광장 1번출구,37.553760,126.969662
용산구,현대아이파크몰,서울특별시 용산구 용산역 광장,37.528404,126.965569
용산구,용산구청,서울특별시 용산구 용산구청 옥상,37.532709,126.990000
용산구,용산구청,서울특별시 용산구 용산구청 2층 외부,37.532709,126.990000
용산구,용산경찰서,서울특별시 용산구 용산경찰서 1층 외부,37.541169,126.967650
용산구,원효지구대 방법순찰대,서울특별시 용산구 원효지구대 방범순찰대(옛 용산구청),37.538716,126.965890
용산구,서울지방보훈청,서울특별시 용산구 서울지방보훈청 실외,37.534923,126.974192
용산구,용산세무서,서울특별시 용산구 용산세무서 1층 외부,37.523302,126.968680
용산구,국방부,서울특별시 용산구 국방부 컨벤스 1층 외부,37.533237,126.978590
용산구,순천향대학교병원,서울특별시 용산구 순천향대학교 서울병원 장례식장 외부,37.534466,127.004585
용산구,순천향대학교병원,서울특별시 용산구 순천향대학교 서울병원 신관 옥상,37.534009,127.004334
용산구,하얏트호텔,서울특별시 용산구 1층 외부 주차장 가는길 휴식장소,37.539372,126.997264
용산구,현대아이파크몰,서울특별시 용산구 아이파크몰 달 주차장 4.5층,37.529492,126.964318
용산구,현대아이파크몰,서울특별시 용산구 아이파크몰 해 주차장 4.5층,37.529492,126.964318
용산구,현대아이파크몰,서울특별시 용산구 아이파크몰 8층 옥상,37.529492,126.964318
용산구,선인상가,서울특별시 용산구 선인상가 21동 1층 외부,37.533068,126.963521
용산구,선인상가,서울특별시 용산구 선인상가 21동 옥상,37.533068,126.963521
용산구,대주아이피아,서울특별시 용산구 1층 공유지,37.533417,126.967360
용산구,전자랜드,서울특별시 용산구 주차장 지하 1층,37.532818,126.958895
용산구,아모레퍼시픽,서울특별시 용산구 아모레퍼시픽 10층 테라스,37.529110,126.968532
용산구,제일기획,서울특별시 용산구 제일기획 1층 외부 주차장,37.535103,126.998616
용산구,제이엘레지던스,서울특별시 용산구 건물 옥상,37.536678,126.961147
용산구,충영빌딩,서울특별시 용산구 충영빌딩 옥상,37.538329,126.959979
용산구,G테크밸리,"서울특별시 용산구 e테크밸리 공개공지, 옥상",37.533234,126.957656
용산구,삼원빌딩,서울특별시 용산구 삼원빌딩 옥상,37.534626,126.959002
용산구,대교빌딩,서울특별시 용산구 대교빌딩 옥상,37.533918,126.957630
용산구,현대자동차,서울특별시 용산구 현대자동차사옥 옥상,37.531999,126.953751
용산구,진성빌딩,서울특별시 용산구 진성빌딩 옥상,37.534610,126.966177
용산구,미성상사,서울특별시 용산구 미성상사㈜ 1층 외부,37.538839,126.968402
용산구,미성상사,서울특별시 용산구 미성상사 공장 옥상,37.538839,126.968402
용산구,조양빌딩,서울특별시 용산구 조양빌딩 옥상,37.536223,126.963549
용산구,하나실업빌딩,서울특별시 용산구 하나실업빌딩 옥상,37.534709,126.960734
용산구,오리온제과,서울특별시 용산구 오리온제과 옥상,37.535767,126.969873
용산구,오리온제과,"서울특별시 용산구 오리온제과 공장 옥상, 주차장",37.536202,126.969268
용산구,우경빌딩,"서울특별시 용산구 우경빌딩 옥상, 1층 외부",37.534231,126.961404
용산구,대한지방행정공제회,서울특별시 용산구 POBA 지방행정공제회 건물 1층 주차장,37.531685,126.970651
용산구,넥서스밸리,서울특별시 용산구 넥서스밸리 1층 외부,37.534144,126.964859
용산구,GS한강에끌라트,서울특별시 용산구 GS한강에끌라트 1층 외부,37.531399,126.955431
용산구,한강그랜드오피스,서울특별시 용산구 한강그랜드오피스 주차장 옆,37.531222,126.955055
용산구,용산전자오피스텔,"서울특별시 용산구 용산전자오피스텔 옥상, 건물옆",37.532207,126.956792
용산구,NH농협은행,서울특별시 용산구 NH농협은행 용산별관(하나로마트) 옥상,37.533197,126.964645
용산구,대우아이빌,"서울특별시 용산구 대우아이빌 16층 옥상, 1층 외부",37.531695,126.968805
용산구,유베이스,서울특별시 용산구 유베이스 1층 외부,37.538001,126.967147
용산구,대원빌딩,서울특별시 용산구 대원빌딩 1층 현관옆,37.535201,126.963618
용산구,기독교대한감리회여선교회관,서울특별시 용산구 기독교대한감리회여선교회관 1층 외부,37.535109,127.011499
용산구,일각빌딩,서울특별시 용산구 일각빌딩 5층,37.540322,126.989802
용산구,한남빌딩,서울특별시 용산구 한남빌딩 5층 외부,37.535022,126.997224
용산구,비비안,서울특별시 용산구 남영비비안 1층 외부(정자),37.528894,126.964038
용산구,서울역 풍림아이원플러스,서울특별시 용산구 서울역 풍림 아이원플러스 공개공지,37.554920,126.968415
용산구,세광음악사,서울특별시 용산구 세광음악사 옥상,37.553965,126.965964
용산구,한화빌딩,서울특별시 용산구 한화빌딩 1층 외부,37.552032,126.968943
용산구,보은개발,서울특별시 용산구 보은개발빌딩 옥상,37.551185,126.969220
용산구,애전빌딩,서울특별시 용산구 애전빌딩 옥상,37.541750,126.970388
용산구,갈월동 오피스,서울특별시 용산구 한진중공업 빌딩 5층 외부,37.540529,126.972721
용산구,KCC IT빌딩,서울특별시 용산구 KCC IT빌딩 옥상,37.548507,126.972205
용산구,금강토탈패션할인매장,서울특별시 용산구 금강토탈패션할인매장 주차장,37.543561,126.971505
용산구,용산빌딩,서울특별시 용산구 용산빌딩 1층 외부(건물뒤편),37.542611,126.972137
용산구,청룡빌딩,서울특별시 용산구 청룡빌딩 주차장,37.541424,126.972679
용산구,롯데지알에스,"서울특별시 용산구 롯데지알에스 옥상, 주차장",37.541540,126.971791
용산구,서경산업,서울특별시 용산구 금강빌딩 주차장,37.544739,126.973179
용산구,수빌딩,서울특별시 용산구 수빌딩 옥상,37.532824,126.970666
용산구,우리빌딩,서울특별시 용산구 우리빌딩 주차장,37.540960,126.973516
용산구,기업은행용산지점,서울특별시 용산구 기업은행용산지점 2층 베란다,37.541995,126.973179
용산구,진흥빌딩,서울특별시 용산구 진흥빌딩 옥상,37.548500,126.977574
용산구,한치과,서울특별시 용산구 한치과의원 건물 주차장,37.545890,126.976959
용산구,㈜하나은행,서울특별시 용산구 LS용산타워 주차장,37.528002,126.967632
용산구,용산더프라임,서울특별시 용산구 용산더프라임 업무동 지하 1층,37.540259,126.969626
용산구,한국폴리텍대학,서울특별시 용산구 한국폴리텍대학 정수캠퍼스,37.529136,126.996483
용산구,한국폴리텍대학,서울특별시 용산구 한국폴리텍대학 정수캠퍼스,37.528710,126.996226
용산구,한국폴리텍대학,서울특별시 용산구 한국폴리텍대학 정수캠퍼스,37.529323,126.995976
용산구,한국폴리텍대학,서울특별시 용산구 한국폴리텍대학 정수캠퍼스,37.529799,126.996498
용산구,용산구보건소,서울특별시 용산구 한강로2가 424-5(LS타워 인근 보도),37.527798,126.967138
용산구,용산구보건소,서울특별시 용산구 한강로3가 12-6(용산전자상가1 공영주차장 인근 보도),37.532293,126.964512
용산구,용산구보건소,서울특별시 용산구 한강로3가 17-1(신용산지하차도 인근 보도),37.532324,126.964955
용산구,용산구보건소,서울특별시 용산구 동자동 14-151(서울역 11번 출구 인근 보도),37.553105,126.972810
은평구,서부경찰서,진흥로 85,37.604507,126.921565
은평구,서울기록원,통일로62길 7,37.607225,126.934431
은평구,은평경찰서,불광로 20,37.609736,126.928939
은평구,진관동주민센터,진관2로 31,37.634963,126.920736
은평구,은평구청,은평로195,37.602457,126.928823
은평구,은평소방서,진관동120,37.628667,126.920092
은평구,은평병원,백련산로 90,37.593970,126.923211
은평구,가톨릭은평성모병원,통일로 1021,37.633609,126.916153
은평구,서북병원,갈현로7길 49,37.604357,126.905664
은평구,북한산성상가,대서문길 36,37.655471,126.948553
은평구,한국행정연구원,진흥로 235,37.609857,126.935396
은평구,은평 서해그랑블,서오릉로 253,37.616971,126.906391
은평구,팜스퀘어,불광로 20,37.609736,126.928939
은평구,녹번JR아파트,통일로 586-19,37.600247,126.937577
은평구,DMC문영퀸즈파크아파트,증산로13길 44-5,37.587600,126.907697
은평구,동원빌딩,은평로 213,37.601436,126.931437
은평구,갈현현대아파트,서오릉로21길 36,37.612772,126.904975
은평구,한국환경산업기술원,진흥로215,37.609872,126.934325
은평구,동익파크아파트,서오릉로23길 9-8,37.615298,126.906872
은평구,휴먼프라자,진관2로 19,37.634854,126.919585
은평구,웅신 미켈란의 아침,진관2로 15-8,37.635394,126.919560
은평구,한국산업인력공단서울동부지사,진관3로 36,37.639707,126.920868
은평구,한국프라우드아파트,갈현로15길 28-17,37.608840,126.907692
은평구,경남 아너스빌,갈현로11길 46,37.604799,126.905402
은평구,미성아파트,증산로15길 35-10,37.589515,126.907741
은평구,웅진,연서로29길 34,37.620004,126.916869
은평구,LG Bestshop 불광점,불광로 41,37.611531,126.930256
은평구,브라운스톤구산,갈현로17길 17,37.611905,126.908888
은평구,삼성전자디지털센터,통일로 760,37.613076,126.928125
은평구,웹시티PC방,통일로 731,37.610623,126.929466
은평구,긱스타PC CAFE,연서로32길3,37.620363,126.924956
은평구,제로100PC 은평구청점,은평로 192,37.601216,126.928961
은평구,럭키PC,은평로9길10,37.601116,126.921585
은평구,하늘PC,통일로 855-20,37.619658,126.919876
은평구,탐스PC카페(응암점),응암로 247,37.594224,126.917855
은평구,레드포스PC,진흥로 144,37.608110,126.926000
은평구,서유기게임랜드,통일로 723,37.610075,126.929715
은평구,오징어게임 PC방,응암로 13길14,37.589448,126.915644
은평구,불광게임랜드,통일로 709,37.609107,126.930785
은평구,드림게임랜드,가좌로 231,37.590296,126.916595
은평구,우주게임장,통일로 707,37.608975,126.930913
은평구,놀랜드,통일로 1050,37.637537,126.917900
은평구,누크PC방,수색로268,37.582969,126.894648
은평구,은하수,연서로 28길 10,37.617780,126.920981
은평구,할리스연신내 게임랜드,연서로 26길5,37.617235,126.920233
은평구,로얄연신내 게임랜드,연서로 29길 8-8 5층,37.618988,126.919713
은평구,연신내 로데오 게임랜드,연서로 214,37.617445,126.919952
은평구,팡팡게임랜드,통일로 855-9 4층,37.618895,126.919884
은평구,긱스타PC방,갈현로 39-1,37.601460,126.910114
은평구,토마토PC방,서오릉로 178,37.613166,126.913878
은평구,알파PC방,통일로 850,37.619320,126.921445
은평구,인터쿨,진흥로 112,37.606504,126.923309
은평구,제로100PC 신사동점,은평로 5,37.596766,126.909211
은평구,로열게임장,수색로 264-1,37.582669,126.895057
은평구,N톡PC,서오릉로 192,37.613760,126.912316
은평구,더조은PC카페,갈현로 188,37.614435,126.912437
은평구,고릴라PC방(역촌역점),서오릉로 77,37.607136,126.921771
은평구,삼성게임랜드,통일로 720,37.610100,126.930572
은평구,제노 PC방,연서로 320,37.623689,126.928167
은평구,아이세븐 PC,연서로 213,37.617644,126.919239
은평구,고릴라 응암1호점,은평로 136,37.600263,126.923039
은평구,퀸PC방,연서로 247,37.619691,126.922172
은평구,데스티니PC,갈현로 14,37.599109,126.910455
은평구,BLISS PC방,응암로11길 3,37.588257,126.916272
은평구,탐스PC카페,진흥로1길 34,37.603469,126.918676
은평구,GPC방,은평로 205-5,37.601591,126.931146
은평구,아이센스리그PC 응암본점,응암로22길 22-1,37.593243,126.920641
은평구,샹떼PC방 역촌점,갈현로 82,37.605266,126.910686
은평구,세븐게임랜드,수색로256,37.582250,126.896276
은평구,쿡몬스터PC카페,통일로 835,37.617906,126.921724
은평구,아이센스리그PC 응암오거리점,응암로13길 14,37.589448,126.915644
은평구,아이센스리그PC 역촌점,갈현로 61,37.603505,126.910188
은평구,TOP PC,은평로 169,37.601517,126.926315
은평구,제로100PC 녹번점,진흥로 148,37.608444,126.926367
은평구,제로100PC 연신내점,연서로 195,37.616383,126.918448
은평구,해피플스방,갈현로 15,37.599292,126.909978
은평구,인터라켄,진관2로 29-21,37.635742,126.919342
은평구,3POP PC CAFE,연서로 73,37.605646,126.915066
은평구,삼성게임랜드 메트로,통일로 856,37.619623,126.921523
은평구,플렉스 PC 카페,은평로 56,37.598534,126.914100
은평구,테라PC방,통일로83길 6-5,37.621234,126.918923
은평구,무지개 당구장,통일로 937,37.626665,126.919628
은평구,로얄 당구장,통일로87길 6,37.623503,126.919203
은평구,반도 당구장,통일로87길 5-9,37.622820,126.919207
은평구,SBS 당구장,통일로83길 6,37.621091,126.919346
은평구,짱구 당구장,연서로29길 8-8,37.618988,126.919713
은평구,월드 당구장,통일로83길 6-5,37.621234,126.918923
은평구,쫑의전쟁,갈현로36길 18-1,37.621629,126.918786
은평구,JK 당구클럽,통일로83길 6-29,37.621458,126.918810
은평구,OK 당구클럽,연서로29길 37,37.619981,126.916340
은평구,당구지존,연서로27길 8-7,37.618115,126.918779
은평구,은평 로데오,연서로 209,37.617326,126.918847
은평구,매니아 당구장,연서로27길 15,37.618055,126.917685
은평구,원큐 당구장,서오릉로 178,37.613166,126.913878
은평구,하이런 당구장,갈현로 186,37.614255,126.912282
은평구,클럽 빌리아트,갈현로 188,37.614435,126.912437
은평구,리더스당구장,서오릉로 208,37.614295,126.911052
은평구,브라보 퍼블릭 스크린,갈현로 300,37.623609,126.917419
은평구,SG골프 은평점,연서로 137,37.611162,126.916843
은평구,SH스크린골프,서오릉로 151,37.611724,126.915939
은평구,다빈치 당구장,진흥로 156,37.608739,126.926979
은평구,엔씨당구클럽,진흥로 148,37.608444,126.926367
은평구,불광골프죤,진흥로 134,37.607680,126.925077
은평구,G스크린 골프,은평로11길 11-2,37.601821,126.922719
은평구,우리스크린골프 녹번점,통일로 636,37.603517,126.935311
은평구,the좋은 당구장,은평로 193-2,37.602130,126.928910
은평구,달인 당구장,은평로 229,37.601277,126.933245
은평구,AK 당구클럽,서오릉로 58,37.605846,126.923591
은평구,뉴프로당구클럽,통일로 723,37.610075,126.929715
은평구,K4 당구장,서오릉로 110,37.609811,126.920108
은평구,제이스크린 골프죤,서오릉로 82,37.607691,126.922040
은평구,헬슐렝 피트니스,통일로 835,37.617906,126.921724
은평구,펀 당구장,통일로 817,37.616563,126.923196
은평구,프로 당구장,연서로 26길 5,37.617235,126.920233
은평구,당구 사랑,연서로 154,37.612652,126.917831
은평구,PEEL빌리어드클럽,불광로 7,37.609475,126.927120
은평구,원 당구장,통일로 69길 16,37.611244,126.926871
은평구,허리우드 당구장,연서로 319,37.623921,126.927818
은평구,로열 빌리아드,연서로 317,37.623757,126.927681
은평구,한양 당구장,통일로 66길 2,37.610277,126.930638
은평구,새벽 당구장,진흥로 201,37.609252,126.931631
은평구,명품 당구장,연서로 274,37.620575,126.925097
은평구,대한 당구클럽,연서로 296,37.621843,126.926906
은평구,Six Billiards,연서로 295-1,37.622084,126.926521
은평구,88 당구장,수색로 16길 8,37.582961,126.895640
은평구,플라틴 당구장,은평로 46,37.598304,126.913097
은평구,태양 당구장,가좌로 318,37.596055,126.910036
은평구,프로변경환 당구클럽,은평로 34,37.598044,126.911786
은평구,당구 사랑,가좌로 321,37.596039,126.909331
은평구,비바체 당구장,은평로 37,37.598500,126.912115
은평구,엠 빌리어드,연서로 58 지층,37.604262,126.915931
은평구,아이원스크린골프,진흥로 1길 28,37.602959,126.918962
은평구,수정 당구장,연서로 4길 6,37.602389,126.916493
은평구,역촌 당구장,진흥로 1길 24,37.602516,126.918767
은평구,아지트 당구장,연서로 91,37.607310,126.914981
은평구,Q 당구장,갈현로 54-8,37.602642,126.910543
은평구,손똘 당구장,역말로 6,37.605361,126.910908
은평구,우리 당구클럽,갈현로 77,37.604726,126.910306
은평구,메트로 골프클럽,은평로 108,37.599712,126.919883
은평구,DS대대 전용클럽,응암로 269 2층,37.596009,126.918771
은평구,JCC 당구클럽,응암로 247 4층,37.594224,126.917855
은평구,허리우드 당구장,응암로 21길16,37.594292,126.916242
은평구,큐당구장,응암로22길 20,37.593387,126.920284
은평구,동양 당구장,응암로 248,37.593986,126.918313
은평구,25시 당구장,응암로 213,37.591008,126.917125
은평구,지앤지 당구장,응암로 13길 24,37.588970,126.914576
은평구,우리 당구장,응암로 11길 3,37.588257,126.916272
은평구,당구의 신,응암로 13길 5,37.589542,126.916538
은평구,월드 당구클럽,응암로 178-1,37.587863,126.916970
은평구,준 당구장,응암로 180,37.588061,126.917033
은평구,킹 당구장,은평로 16길 18,37.599739,126.929618
은평구,지존 당구장,가좌로 179,37.587057,126.920621
은평구,sbs 당구장,응암로 12길 13,37.587921,126.918341
은평구,당구 한게임,은평로 173,37.601610,126.926819
은평구,모아 당구장,은평로 145,37.600965,126.923733
은평구,정석 당구클럽,응암로 340-1,37.601494,126.922832
은평구,김무순 당구클럽,은평로 91,37.599709,126.917822
은평구,3949 당구장,증산서길 153,37.588394,126.911861
은평구,증산 당구장,증산로 307,37.584550,126.909992
은평구,세영 당구장,증산서길 98,37.584622,126.907750
은평구,25시 당구장,증산서길 107,37.585537,126.908600
은평구,베로니스 골프존,증산로 315,37.585070,126.910467
은평구,산성 당구장,대서문길 9,37.657688,126.947078
은평구,골프존파크 진관뉴타운점,진관3로 37,37.640392,126.920438
은평구,탑 당구클럽,진관2로 15-46,37.638652,126.919082
은평구,메트로보석사우나,통일로 856,37.619623,126.921523
은평구,대호사우나,불광로 90,37.615069,126.933001
은평구,수정탕,통일로87길 5-9,37.622820,126.919207
은평구,천수경사우나,연서로17길 34-14,37.614199,126.914284
은평구,오복탕,갈현로 181-24,37.614639,126.911263
은평구,명진목욕탕,통일로69길 29,37.610226,126.925887
은평구,삼부건강랜드보석사우나,증산로 21길 11,37.595707,126.913495
은평구,천일탕,진흥로 1 길24,37.602516,126.918767
은평구,은하수사우나,갈현로 100,37.606740,126.910883
은평구,메트로불한증막사우나,은평로 108,37.599712,126.919883
은평구,더죤스파24시사우나,불광천길 536,37.597913,126.916391
은평구,동양사우나,가좌로 7길 11,37.586347,126.919986
은평구,대진대중탕,응암로 340-1,37.601494,126.922832
은평구,은경불한증막사우나,은평로 136,37.600263,126.923039
은평구,루하스사우나,통일로 1030,37.634192,126.917696
은평구,엔씨백화점 불광점,불광로 20,37.609736,126.928939
은평구,범서쇼핑,통일로 842,37.618690,126.922064
은평구,이마트 수색점,수색로 217,37.579693,126.898678
은평구,이마트 은평점,은평로 111,37.600825,126.920514
은평구,롯데몰 은평,통일로 1050,37.637537,126.917900
은평구,은평구립도서관,통일로 78가길 13-84,37.618979,126.928272
은평구,이디야 연신내역점,"통일로 855-9, 1층",37.618895,126.919884
은평구,더홀릭보드게임카페 연신내점,"연서로29길 13, 3층",37.618965,126.918640
은평구,아로이 커피(연신내점),통일로 838-4,37.618345,126.922333
은평구,읍천리382 응암점,응암로 302-1,37.598310,126.921069
은평구,은평장례문화원,통일로 933,37.626239,126.919672
은평구,연신내밤,"통일로83길 6, 2층",37.621091,126.919346
은평구,허브카페,통일로 863-4,37.619941,126.919821
은평구,더원 양꼬치,"통일로 863-14, 2층",37.620107,126.919549
은평구,세븐플로어,통일로 855-20,37.619658,126.919876
은평구,탐라포차,"연서로29길 6, 2층",37.618808,126.919582
은평구,은평갈비,"연서로29길 8-15, 2층",37.619410,126.919650
은평구,북경양꼬치,연서로29길 14-15,37.619687,126.919387
은평구,베이비 기네스,"통일로83길 5-9, 2층",37.620462,126.919197
은평구,에이티원디아지트,"연서로29길 20-21, 3층",37.620029,126.919019
은평구,연신내 호프,"통일로 863-17, 2층",37.620215,126.919223
은평구,유토피아 카페,연서로27길 16-8,37.618411,126.918163
은평구,코피티암(KOPITIAM),"연서로27길 7-1, 1,2층",37.617628,126.918349
은평구,coffee 13 oz(커피 13온스),갈현로 181-24,37.614639,126.911263
은평구,아로이 커피(녹번점),"통일로 675, 1,2층",37.606647,126.933078
은평구,전하는 날,"서오릉로 8, 2층",37.602261,126.926933
은평구,꼬치의 품격,"은평로 191-2, 2층",37.601665,126.929070
은평구,엉터리집,"불광로 21, 2층",37.610392,126.928474
은평구,사랑채 한방찻집,통일로 727,37.610459,126.929651
은평구,봉 커피호프,진흥로 159,37.609113,126.927523
은평구,무등골,"통일로 715-8,",37.610002,126.929750
은평구,연신커피호프,"통일로 833, 지하1층",37.617690,126.921958
은평구,연신내 고깃집,통일로73길 24,37.614915,126.921895
은평구,우정 커피호프,통일로69길 4,37.611979,126.927692
은평구,또또 커피호프,"진흥로 147, 지하1층",37.608741,126.925894
은평구,수다방,"진흥로 121-7, 지1층",37.607850,126.923797
은평구,궁전 전통찻집,"불광로 25-1, 2층",37.610770,126.928610
은평구,꼬지 사케,연서로 309,37.623143,126.927303
은평구,드러머 민경록 라이브,연서로 317,37.623757,126.927681
은평구,타디스,불광로 44-2,37.611110,126.930625
은평구,초이스 커피호프,연서로 249,37.619700,126.922480
은평구,은하수,"통일로80길 8, 2층",37.619927,126.921550
은평구,레드락,"연서로 132, 지하1층",37.610538,126.917285
은평구,역촌면 파스타,역말로 84-9,37.606906,126.920056
은평구,슬램덩크,은평로8길 8-1,37.599571,126.920550
은평구,불광천 서서갈비,불광천길 536,37.597913,126.916391
은평구,커피홀릭,응암로 250-1,37.594217,126.918399
은평구,펀 비여킹,응암로13길 22-1,37.589064,126.914777
은평구,송추가마골,북한산로 276,37.654372,126.940227
은평구,강남 옥류관,북한산로 246,37.652189,126.938142
은평구,호텔씨에스에비뉴,통일로 585-1,37.599090,126.936430
종로구,"구청, 민간 운영",낙원악기상가(낙원동 260-1 도로일부),37.572666,126.987808
중구,"중구, 한국일보",서울특별시 중구 남대문로 81,37.564730,126.981730
중구,"중구, 한국일보",서울특별시 중구 을지로 35,37.566492,126.981866
중구,"중구, 한국일보",서울특별시 중구 을지로 66,37.565155,126.985011
중구,"중구, 한국일보",서울특별시 중구 삼일대로 363,37.567157,126.987052
중구,"중구, 한국일보",서울특별시 중구 장충단로 275,37.568885,127.008775
중구,"중구, 한국일보",서울특별시 중구 한강대로 416,37.555504,126.973751
중랑구,지방자치단체 청사,서울특별시 중랑구 봉화산로 179(신내동),37.606564,127.092725
중랑구,면목5동,서울특별시 중랑구 동일로 619(면목동),37.585753,127.079475
중랑구,서울의료원,서울특별시 중랑구 신내로 156,37.613091,127.099187
중랑구,녹색병원,서울특별시 중랑구 사가정로49길 53,37.583564,127.086060
중랑구,서울정형외과,서울특별시 중랑구 망우로 418,37.599142,127.098648
중랑구,위너스병원,서울특별시 중랑구 망우로 403,37.599458,127.096875
중랑구,신내SKV1센터,서울특별시 중랑구 신내역로111,37.613122,127.112442
중랑구,상봉프레미어스엠코,서울특별시 중랑구 망우로 353,37.598333,127.091624
중랑구,서울시체육회,서울특별시 중랑구 망우로 182(상봉동),37.592700,127.073042
중랑구,한국전력,서울특별시 중랑구 동일로 862,37.607469,127.079243
중랑구,서울우유,서울특별시 중랑구 중랑천로 71,37.592080,127.072464
중랑구,삼부빌딩,서울특별시 중랑구 망우로 418,37.599142,127.098648
중랑구,대상빌딩,서울특별시 중랑구 면목로 470,37.593666,127.086662
중랑구,서일대,서울특별시 중랑구 용마산로90길 28,37.586083,127.097203
중랑구,이노씨티,서울특별시 중랑구 망우로 353,37.598333,127.091624
중랑구,하이마트,서울특별시 중랑구 망우로 399,37.599300,127.096546
중랑구,사이버캡틴PC방,서울특별시 중랑구  면목동 359-15번지 지하1층 ,37.587056,127.088166
중랑구,푸른공간,서울특별시 중랑구  면목동 176-11번지 1층 ,37.586923,127.078488
중랑구,매직엔PC방,서울특별시 중랑구  중화동 316-1번지 지하1층 ,37.598133,127.076655
중랑구,i7 PC방,서울특별시 중랑구  면목동 665-3번지 ,37.578200,127.085030
중랑구,스타포스PC방,서울특별시 중랑구  상봉동 115-20번지 ,37.595453,127.083047
중랑구,집피씨클럽,서울특별시 중랑구  망우동 147-21번지 지상2층 ,37.601057,127.104970
중랑구,메트로PC방,서울특별시 중랑구  중화동 314-1번지 지하1층 ,37.599280,127.077484
중랑구,하이넷PC,서울특별시 중랑구  망우동 487-17번지 지하1층 ,37.600308,127.100150
중랑구,스피드넷PC방,서울특별시 중랑구  묵동 244-140번지 지상3층 ,37.609678,127.076681
중랑구,누리터PC방,서울특별시 중랑구  신내동 454-4번지 지상3층 ,37.605592,127.097071
중랑구,WAAPC방,서울특별시 중랑구  면목동 399-36번지 지상2층 ,37.571572,127.082690
중랑구,제우스 PC방,서울특별시 중랑구  면목동 458-76번지 지상3층 ,37.582424,127.088817
중랑구,일프로PC방,"서울특별시 중랑구  면목동 103-5번지 지상2,3층 ",37.589253,127.090371
중랑구,푸른공간,서울특별시 중랑구  중화동 311-10번지 지하1층 ,37.601717,127.077287
중랑구,레드죤피시방,서울특별시 중랑구  상봉동 88-95번지 ,37.595016,127.089626
중랑구,사이버스페이스,서울특별시 중랑구  상봉동 113-4번지 지하1층 ,37.594761,127.085683
중랑구,망고 PC방,서울특별시 중랑구  중화동 307-63번지 지상3층 ,37.604223,127.077537
중랑구,윈 플러스PC방,서울특별시 중랑구  신내동 587-4번지 지상3층 ,37.605613,127.096776
중랑구,스마트PC방,서울특별시 중랑구  중화동 311-7번지 ,37.601934,127.077446
중랑구,블랙PC,서울특별시 중랑구  면목동 103-6번지 ,37.589154,127.089936
중랑구,오즈아레나,서울특별시 중랑구  망우동 572번지 용마프라자 지하001호,37.596329,127.098827
중랑구,아이세븐PC(i7 PC),서울특별시 중랑구  면목동 661-4번지 지하1층 ,37.578407,127.085178
중랑구,본PC방,"서울특별시 중랑구  상봉동 496 우정 상가동 비01,비02,비03,비04,비05,비06 ",37.599429,127.088684
중랑구,행운PC방,서울특별시 중랑구  신내동 494-5번지 지하1층 ,37.600330,127.098407
중랑구,조은PC방,서울특별시 중랑구  면목동 102-2번지 지상2층 ,37.589083,127.089641
중랑구,스마트PC방,서울특별시 중랑구  묵동 170-27번지 월등스카이뷰아파트 비101 ,37.614190,127.077051
중랑구,오즈PC방,서울특별시 중랑구  면목동 497-7번지 2층 ,37.582349,127.088292
중랑구,WAA PC방,서울특별시 중랑구  면목동 118-1번지 2층 ,37.587818,127.086033
중랑구,레드PC방,서울특별시 중랑구  면목동 578-28번지 외 2필지 지상2층 ,37.578707,127.091094
중랑구,PC & 달인,서울특별시 중랑구  면목동 653-1번지 3층 ,37.579259,127.085716
중랑구,아이센스PC방 망우점,"서울특별시 중랑구  망우동 479 한일써너스빌리젠시1단지 S1215, S1216 지상2층 ",37.597335,127.093478
중랑구,페타PC방,서울특별시 중랑구  상봉동 122번지 2층 ,37.593721,127.083302
중랑구,제우스PC방,서울특별시 중랑구  면목동 103-6번지 2층 ,37.589154,127.089936
중랑구,PC데이(DAY),서울특별시 중랑구  면목동 117-17번지 2층 ,37.587886,127.086274
중랑구,에스엠(SM)PC방,서울특별시 중랑구  상봉동 136-1번지 3층 4호,37.593158,127.074093
중랑구,LUNA PC cafe(루나피씨카페),서울특별시 중랑구  신내동 613-10번지 외 1필지 3층 ,37.607671,127.096565
중랑구,상봉PC방,서울특별시 중랑구  상봉동 84-22번지 2층 ,37.594165,127.092525
중랑구,맥스피드PC방,서울특별시 중랑구  면목동 458-49번지 지하1층 ,37.582325,127.089757
중랑구,현PC,서울특별시 중랑구  면목동 148-31번지 ,37.587467,127.082762
중랑구,로즈PC방,서울특별시 중랑구  상봉동 118번지 외2 ,37.595346,127.082670
중랑구,엔탑PC존,서울특별시 중랑구  중화동 307-1번지 1층 17회외22 ,37.604960,127.077661
중랑구,피시데이(PC DAY),서울특별시 중랑구  면목동 184-13번지 세일종합상가 2층 ,37.592199,127.077164
중랑구,맥스피드PC방,서울특별시 중랑구  면목동 51-19번지 지상2층 ,37.587678,127.096498
중랑구,아이센스PC,서울특별시 중랑구  묵동 174-4번지 지하1층 ,37.612202,127.078474
중랑구,갤러리PC,서울특별시 중랑구  신내동 613-71번지 부영빌딩3층 ,37.607799,127.096813
중랑구,벙커PC방,서울특별시 중랑구  면목동 146-75번지 3층 ,37.587512,127.080244
중랑구,오즈PC카페,서울특별시 중랑구  면목동 497-7번지 2층 ,37.582349,127.088292
중랑구,베가 PC카페,서울특별시 중랑구  신내동 644번지 엘리어트하우스 지하1동 102호,37.615491,127.094450
중랑구,뮤토(MUTO)PC,서울특별시 중랑구  면목동 51-1번지 3층 ,37.587768,127.096241
중랑구,센스PC,서울특별시 중랑구  면목동 50-47번지 2층 ,37.587859,127.095575
중랑구,제노PC cafe,서울특별시 중랑구  면목동 496-4번지 지하1층 ,37.580986,127.088056
중랑구,샹떼PC방,서울특별시 중랑구  상봉동 300-2번지 2층 ,37.602757,127.087376
중랑구,큐브PC,서울특별시 중랑구  중화동 307-62번지 지상1층 ,37.604069,127.077497
중랑구,콩PC,서울특별시 중랑구  묵동 238-2번지 2층 201호 ,37.613557,127.076691
중랑구,로웰 PC Cafe,서울특별시 중랑구  망우동 491-38번지 3층 ,37.598206,127.096731
중랑구,뉴본PC CAFE,서울특별시 중랑구  중화동 315-10번지 2층 ,37.598418,127.076920
중랑구,셀프PC,서울특별시 중랑구  중화동 325-16번지 지상1층 ,37.596344,127.071921
중랑구,일레븐,서울특별시 중랑구  면목동 472-8번지 지상2층 ,37.580876,127.089895
중랑구,망고톡PC방,서울특별시 중랑구  면목동 68-11번지 지상2층 ,37.586931,127.094320
중랑구,NY시스템,서울특별시 중랑구  중화동 301-49번지 지상1층 ,37.597768,127.079433
중랑구,천PC,서울특별시 중랑구  면목동 175-85번지 지상1층 ,37.586275,127.078909
중랑구,승PC,서울특별시 중랑구  망우동 357-36번지 지상1층 ,37.600717,127.100707
중랑구,베테랑,서울특별시 중랑구  상봉동 90-12번지 ,37.595722,127.089137
중랑구,피에스타PC방 면목점,서울특별시 중랑구  면목동 161-34번지 3층 ,37.584628,127.080139
중랑구,우리PC,서울특별시 중랑구  상봉동 84-28번지 지상1층 ,37.594143,127.092383
중랑구,세븐(파라다이스)PC,서울특별시 중랑구  상봉동 90-49번지 ,37.595600,127.089178
중랑구,PC클럽,서울특별시 중랑구  망우동 516-2번지 2층 ,37.595198,127.093287
중랑구,RAON기획,서울특별시 중랑구  상봉동 88-38번지 ,37.594946,127.090978
중랑구,Heaven PC방,서울특별시 중랑구  망우동 410-1번지 지상2층 ,37.594939,127.100228
중랑구,스타덤PC 상봉역점,서울특별시 중랑구  상봉동 115-19번지 지상2층 ,37.595497,127.083217
중랑구,겜스터PC방,서울특별시 중랑구  묵동 176-1번지 3층 ,37.611889,127.078349
중랑구,스카이PC,서울특별시 중랑구  상봉동 90-61번지 지상1층 ,37.596097,127.088182
중랑구,아이센스PC방,서울특별시 중랑구  상봉동 129-3번지 지층 ,37.593813,127.076532
중랑구,엔플세븐PC방,서울특별시 중랑구  망우동 358-5번지 지층 ,37.600208,127.100766
중랑구,킹PC,서울특별시 중랑구  신내동 800번지 동광오뜨빌 ,37.600660,127.099947
중랑구,아이비스PC방,서울특별시 중랑구  면목동 17-31번지 지층 ,37.589951,127.097404
중랑구,놀다가바둑이PC,서울특별시 중랑구  상봉동 130-139번지 ,37.593162,127.076119
중랑구,행운PC,서울특별시 중랑구  상봉동 130-130번지 2층 ,37.593240,127.076422
중랑구,더캠프PC방,서울특별시 중랑구  상봉동 118번지 ,37.595346,127.082670
중랑구,아이비스PC,서울특별시 중랑구  면목동 105-4번지 ,37.588636,127.089601
중랑구,엔큐브면목점,서울특별시 중랑구  면목동 720-6번지 ,37.574307,127.080301
중랑구,노리터원,서울특별시 중랑구  중화동 311-3번지 ,37.602443,127.077421
중랑구,Kim PC,서울특별시 중랑구  면목동 177-43번지 ,37.586810,127.078010
중랑구,대박PC,서울특별시 중랑구  면목동 456-27번지 ,37.582266,127.089953
중랑구,바닐라킹PC,서울특별시 중랑구  중화동 311-9번지 임마누엘교회 ,37.601692,127.077498
중랑구,명당PC,서울특별시 중랑구  면목동 167-47번지 ,37.583167,127.093027
중랑구,에이스PC,서울특별시 중랑구  상봉동 130-108번지 ,37.592923,127.075227
중랑구,고니PC,서울특별시 중랑구  망우동 464-27번지 ,37.596500,127.099378
중랑구,바닐라pc방,서울특별시 중랑구  묵동 239-154번지 ,37.611856,127.076782
중랑구,바닐라PC,서울특별시 중랑구  망우동 466-1번지 준인테리어 ,37.598950,127.100158
중랑구,골드PC방,서울특별시 중랑구  면목동 72-1번지 3층 ,37.589470,127.093425
중랑구,바닐라PC방,서울특별시 중랑구  면목동 134-14번지 ,37.591568,127.082088
중랑구,브라보PC 태릉점,서울특별시 중랑구  묵동 235-17번지 ,37.614133,127.075165
중랑구,해왕피씨,서울특별시 중랑구  망우동 487-17번지 지하1층 ,37.600308,127.100150
중랑구,라스베가스 PC방,서울특별시 중랑구  망우동 523-66번지 ,37.590728,127.093756
중랑구,인디고 PC,서울특별시 중랑구  신내동 797번지 동성7차아파트 ,37.606054,127.097141
중랑구,비원 PC방,서울특별시 중랑구  면목동 458-1번지 ,37.583419,127.088678
중랑구,아이비스 PC,서울특별시 중랑구  상봉동 125-68번지 ,37.591961,127.081966
중랑구,월드 PC방,서울특별시 중랑구  면목동 44-17번지 ,37.587547,127.094557
중랑구,칸 PC방,서울특별시 중랑구  면목동 14-26번지 ,37.588965,127.097629
중랑구,골드PC,서울특별시 중랑구  상봉동 130-56번지 ,37.592273,127.075656
중랑구,맥스피드PC방,서울특별시 중랑구  신내동 613-15번지 ,37.607551,127.096283
중랑구,중랑 MEGA VR,서울특별시 중랑구  망우동 495번지 한일써너스빌리젠시2단지 ,37.597668,127.094407
중랑구,메이드PC,서울특별시 중랑구  망우동 488-16번지 동성빌딩 ,37.599932,127.098495
중랑구,진PC,서울특별시 중랑구  면목동 161-8번지 ,37.584274,127.080519
중랑구,아이센스PC 면목점,서울특별시 중랑구  면목동 455-19번지 ,37.582290,127.090561
중랑구,KAMJA PC CAFE(감자PC방),서울특별시 중랑구  중화동 302-81번지 양지대중사우나 ,37.598959,127.078426
중랑구,우림pc,서울특별시 중랑구  망우동 469-36번지 바울선교회 ,37.598659,127.098412
중랑구,에이스PC,서울특별시 중랑구  면목동 715번지 늘푸른동아아파트 ,37.572876,127.080634
중랑구,VIP PC,서울특별시 중랑구  면목동 151-7번지 ,37.585399,127.080090
중랑구,TOP PLACE PC(탑플레이스PC 상봉점),"서울특별시 중랑구  상봉동 113번지 B101,호",37.595507,127.085332
중랑구,용마PC,서울특별시 중랑구  망우동 403-16번지 ,37.596875,127.100503
중랑구,아즈텍PC방 망우점,서울특별시 중랑구  망우동 461-1번지 3층 ,37.595735,127.099385
중랑구,따라가기PC방,서울특별시 중랑구  면목동 175-40번지 지하1층 ,37.584978,127.078752
중랑구,인터캐슬PC방,서울특별시 중랑구  면목동 167-47번지 ,37.583167,127.093027
중랑구,Q9 PC방,서울특별시 중랑구  면목동 72-57번지 2층 ,37.589112,127.091914
중랑구,ON PC방,"서울특별시 중랑구  묵동 239-1번지 3층 1,2호",37.611767,127.077203
중랑구,엔탑PC방,서울특별시 중랑구  상봉동 101-15번지 ,37.595909,127.085999
중랑구,하라보 보드게임장,서울특별시 중랑구 면목로27길 92 지하,37.574267,127.080519
중랑구,용마골프클럽,서울특별시 중랑구  망우로70길 105 (망우동),37.595528,127.104784
중랑구,우리골프스쿨,서울특별시 중랑구  면목로27길 6 (면목동),37.575242,127.084941
중랑구,동경골프연습장,서울특별시 중랑구  봉화산로 193 (신내동),37.606832,127.094457
중랑구,KG 골프사관대학원,서울특별시 중랑구  용마산로 348 (면목동),37.583528,127.094371
중랑구,OK 골프연습장,서울특별시 중랑구  신내로25가길 2 (묵동),37.619478,127.084195
중랑구,J&A 골프스쿨,서울특별시 중랑구  동일로 752 (중화동),37.597009,127.082071
중랑구,삼부그린스포츠센터,서울특별시 중랑구  용마산로 623 (신내동),37.606729,127.100477
중랑구,Sun골프아카데미,서울특별시 중랑구  숙선옹주로 91 (묵동),37.617265,127.085544
중랑구,삼보 골프스쿨,서울특별시 중랑구  중랑천로10길 76 (면목동),37.592244,127.077344
중랑구,신아골프존,"서울특별시 중랑구  봉화산로 194  (신내동,신아타운(1202호))",37.606453,127.094707
중랑구,대명골프,서울특별시 중랑구  봉화산로56길 153 (신내동),37.601484,127.096785
중랑구,용마 스크린골프,서울특별시 중랑구  용마산로 494 (망우동),37.594976,127.100268
중랑구,유진 스크린골프장,서울특별시 중랑구  망우로 448 (망우동),37.599870,127.101588
중랑구,현대 야외 스크린골프,서울특별시 중랑구  용마산로129나길 6 (신내동),37.606900,127.099593
중랑구,Nobless 스크린골프,서울특별시 중랑구  면목로39길 18 (면목동),37.579950,127.086435
중랑구,세븐골프,서울특별시 중랑구  신내로21길 6 (묵동),37.617398,127.090128
중랑구,스크린골프 PGA,서울특별시 중랑구  망우로 316 (상봉동),37.596522,127.087565
중랑구,J스크린 & 골프스쿨,서울특별시 중랑구  동일로143길 19 (중화동),37.605007,127.077618
중랑구,대영 스크린골프,서울특별시 중랑구  겸재로 226-3 (면목동),37.589386,127.092972
중랑구,천지골프,서울특별시 중랑구  신내로7가길 35 (상봉동),37.602281,127.093872
중랑구,w 스크린골프,서울특별시 중랑구  신내로 48 (신내동),37.603195,127.096145
중랑구,GOTO 면목 골프,서울특별시 중랑구  면목로39길 11 (면목동),37.579552,127.086299
중랑구,휘트니스 놀이터,"서울특별시 중랑구  숙선옹주로 6-9 (묵동, 묵동자이아파트)",37.614913,127.077945
중랑구,서울 스포츠센터,서울특별시 중랑구  중랑역로 262 (묵동),37.615417,127.077522
중랑구,비타민 골프존 아카데미,서울특별시 중랑구  봉화산로 194-1002 (신내동),37.606425,127.094729
중랑구,SS골프,"서울특별시 중랑구  용마산로 361 (면목동, 영스포츠)",37.584260,127.093697
중랑구,정이든 스크린골프,"서울특별시 중랑구  용마산로 382 (면목동, 정이든빌딩)",37.585690,127.095065
중랑구,청수헬스클럽,서울특별시 중랑구  면목로49길 71 (면목동),37.582935,127.086123
중랑구,이코리아스포츠,서울특별시 중랑구  망우로 458 (망우동),37.599970,127.102995
중랑구,라인헬스아카데미,서울특별시 중랑구  용마산로 389 (면목동),37.586498,127.094934
중랑구,세방헬스클럽,서울특별시 중랑구  면목로37길 17 (면목동),37.579090,127.085267
중랑구,광현헬스,서울특별시 중랑구  사가정로52길 22 (면목동),37.579847,127.086776
중랑구,비바 휘트니스,서울특별시 중랑구  용마산로 494 (망우동),37.594976,127.100268
중랑구,테크노 휘트니스,서울특별시 중랑구  동일로 608 (면목동),37.584644,127.080125
중랑구,피트니스 에스 핏,서울특별시 중랑구  신내로14길 13 (신내동),37.605833,127.096080
중랑구,오메가 쓰리 스포츠,서울특별시 중랑구  봉화산로 117 (상봉동),37.603165,127.087234
중랑구,바디캠프,서울특별시 중랑구  동일로 851 (묵동),37.606425,127.078241
중랑구,굿모닝 휘트니스,서울특별시 중랑구  망우로 186 (상봉동),37.592976,127.073456
중랑구,운동사람들,서울특별시 중랑구  용마산로115길 108 (망우동),37.598067,127.094140
중랑구,뉴온리짐,"서울특별시 중랑구  동일로129길 35 (중화동,태능에센빌 복합상가 지하1층)",37.599270,127.077555
중랑구,GOTO 면목,서울특별시 중랑구  면목로39길 11 (면목동),37.579552,127.086299
중랑구,휘트니스 놀이터,"서울특별시 중랑구  숙선옹주로 6-9 (묵동, 묵동자이아파트)",37.614913,127.077945
중랑구,주식회사 고릴라멀티짐,"서울특별시 중랑구  망우로30길 3 (상봉동,안산빌딩 2층)",37.593081,127.074751
중랑구,서울스포츠센터,서울특별시 중랑구  중랑역로 262 (묵동),37.615417,127.077522
중랑구,스포웰짐,서울특별시 중랑구  봉화산로 194 (신내동),37.606453,127.094707
중랑구,투바디짐,서울특별시 중랑구  봉우재로 73 (상봉동),37.591793,127.081355
중랑구,신내헬스,"서울특별시 중랑구  신내로 127 (신내동, 신내 9단지 아파트)",37.610867,127.095652
중랑구,비타민 스포츠센터,"서울특별시 중랑구  면목로44길 28 (면목동, 아람플러스리빙)",37.580888,127.089808
중랑구,우림헬스크럽,서울특별시 중랑구  봉우재로71길 18 (망우동),37.596386,127.098765
중랑구,올리브짐,서울특별시 중랑구  겸재로49길 18 (면목동),37.589863,127.090493
중랑구,우디안 휘트니스,"서울특별시 중랑구  신내역로 165 (신내동, 신내우디안 2단지 휘트니스센터)",37.616583,127.109632
중랑구,팀키스짐(TEAM KIS GYM),서울특별시 중랑구  동일로 937 (묵동),37.614003,127.076482
중랑구,운동창고,"서울특별시 중랑구  봉화산로56길 153, 4층 408호 (신내동, 대명프라자)",37.601484,127.096785
중랑구,카인드짐,서울특별시 중랑구  면목로 지하 487 (상봉동),37.603478,127.087075
중랑구,고구마 휘트니스,"서울특별시 중랑구  상봉로 39 (면목동, MS빌딩)",37.589436,127.093436
중랑구,팀키스 짐,"서울특별시 중랑구  망우로60길 37 (망우동, 효성써너스빌에코)",37.597102,127.094238
중랑구,시너지 짐,"서울특별시 중랑구  면목로39길 8 (면목동, 한성빌딩)",37.579763,127.087173
중랑구,바디톡,"서울특별시 중랑구  망우로 328, 3층 (상봉동, 시네마시티)",37.596790,127.088962
중랑구,피트니스 아레나,"서울특별시 중랑구  동일로 802, 지하1층 (중화동, 대신빌딩)",37.602085,127.079714
중랑구,애스톤 네이처 24 hour 휘트니스,"서울특별시 중랑구  동일로 887 (묵동, 삼삼메디컬빌딩)",37.609506,127.077639
중랑구,미라클 헬스,"서울특별시 중랑구  상봉중앙로 41, 2층 (상봉동, 해동 훼미리)",37.600816,127.087200
중랑구,H·O·C GYM,서울특별시 중랑구  용마산로 458 (망우동),37.591920,127.098427
중랑구,코오스트롱 휘트니스,"서울특별시 중랑구  신내로 193, 엘리어트하우스 B층 1호 (신내동)",37.615475,127.094437
중랑구,바디플레이스,"서울특별시 중랑구  용마산로 384, 2, 3층 (면목동)",37.585882,127.095243
중랑구,코어스트롱 중랑구청점,"서울특별시 중랑구  봉화산로 218, 지하2층 (신내동)",37.607386,127.097062
중랑구,월드컵 당구장,서울특별시 중랑구  면목로33길 33 (면목동),37.576489,127.084020
중랑구,만점 당구장,서울특별시 중랑구  면목로 368  (면목동),37.584825,127.088551
중랑구,삼성당구장,서울특별시 중랑구  망우로32길 37 (면목동),37.592192,127.077133
중랑구,볼모아 당구장,서울특별시 중랑구  중랑역로 51 (중화동),37.598378,127.076920
중랑구,킹당구장,서울특별시 중랑구  용마산로 418 (면목동),37.588800,127.096702
중랑구,우리 당구장,서울특별시 중랑구  동일로129길 54 (중화동),37.599985,127.077033
중랑구,알까기당구장,서울특별시 중랑구  중랑역로 95 (중화동),37.601934,127.077447
중랑구,윤빌라이트 클럽,서울특별시 중랑구  봉화산로 218 (신내동),37.607386,127.097062
중랑구,헐리우드 당구장,서울특별시 중랑구  송림길 7 (상봉동),37.599606,127.095188
중랑구,우리들당구장,서울특별시 중랑구  면목로 342 (면목동),37.582388,127.088791
중랑구,ABC 당구장,서울특별시 중랑구  망우로30길 30 (상봉동),37.592050,127.074812
중랑구,웰컴 당구장,서울특별시 중랑구  면목로 361 (면목동),37.584342,127.088245
중랑구,해밀,서울특별시 중랑구  신내로14길 13 (신내동),37.605833,127.096080
중랑구,드림 당구클럽,서울특별시 중랑구  면목로 419 (면목동),37.589372,127.086982
중랑구,캐롬학당,서울특별시 중랑구  동일로 905  (묵동),37.611116,127.077295
중랑구,호박 당구클럽,서울특별시 중랑구  중랑역로 122 (중화동),37.604204,127.077488
중랑구,키노 당구장,서울특별시 중랑구  망우로 422 (망우동),37.599312,127.098976
중랑구,해적 당구장,서울특별시 중랑구  동일로163길 8 (묵동),37.612173,127.076868
중랑구,프로 당구장,서울특별시 중랑구  용마산로 554 (망우동),37.600436,127.100712
중랑구,필리스당구장,서울특별시 중랑구  망우로 316 (상봉동),37.596522,127.087565
중랑구,원 당구장,서울특별시 중랑구  동일로129길 12 (중화동),37.602845,127.084204
중랑구,오성 당구장,서울특별시 중랑구  봉우재로 195 (망우동),37.594651,127.094401
중랑구,떼굴떼굴,서울특별시 중랑구  봉우재로 39 (면목동),37.590708,127.077554
중랑구,웹툰 당구장,서울특별시 중랑구  용마산로 414 (면목동),37.588411,127.096504
중랑구,파랑 당구장,서울특별시 중랑구  봉화산로52길 58 (신내동),37.605425,127.096304
중랑구,삼보 당구클럽,서울특별시 중랑구  중랑천로10길 76 (면목동),37.592244,127.077344
중랑구,킹 당구장,서울특별시 중랑구  용마산로 426 (면목동),37.589429,127.097103
중랑구,ZEN 당구클럽,서울특별시 중랑구  망우로 202 (상봉동),37.593485,127.075474
중랑구,용 당구장,서울특별시 중랑구  사가정로 389 (면목동),37.580932,127.088040
중랑구,Q 당구장,서울특별시 중랑구  망우로 204 (상봉동),37.593523,127.075628
중랑구,구슬모아 당구클럽,서울특별시 중랑구  망우로 291 (상봉동),37.596449,127.084793
중랑구,브라보 당구장,서울특별시 중랑구  동일로 607 (면목동),37.584721,127.079539
중랑구,드림 당구장,서울특별시 중랑구  용마산로 328 (면목동),37.581058,127.093572
중랑구,서울 당구장,"서울특별시 중랑구  중랑역로 262, 2층 (묵동, 동양제일관광나이트)",37.615417,127.077522
중랑구,B1 당구클럽,서울특별시 중랑구  봉화산로56길 77 (신내동),37.605245,127.098012
중랑구,당돌이 당구장,서울특별시 중랑구  용마산로 440 (면목동),37.590433,127.097650
중랑구,한큐당구장,"서울특별시 중랑구  면목로37길 5 (면목동, 중하빌딩)",37.578854,127.085794
중랑구,FUll 당구장,"서울특별시 중랑구  겸재로 264 (면목동, (주)그린고속관광)",37.590145,127.096778
중랑구,캐롬스팟,"서울특별시 중랑구  용마산로 493, 동양빌딩 지층 1호 (망우동)",37.595010,127.099530
중랑구,빌킬,"서울특별시 중랑구  면목로 289, 4층 (면목동)",37.578733,127.086052
중랑구,ICE PLANET(아이스 플래닛),서울특별시 중랑구  상봉중앙로 45 (상봉동),37.601117,127.087046
중랑구,로얄스포츠센타,서울특별시 중랑구  망우로 247 (중화동),37.595322,127.079577
중랑구,중곡 스포렉스,서울특별시 중랑구  면목로23길 20 (면목동),37.574892,127.083439
중랑구,면일체육문화센터,"서울특별시 중랑구  용마산로100길 13, 면일체육문화센터 (망우동)",37.592042,127.099795
